{"type":"FeatureCollection","features":[{"type":"Feature","properties":{"kind":"Wind","t_state":"IA","t_county":"Adair County","amount":64,"p_name":"Adair","p_year":2008},"geometry":{"type":"Point","coordinates":[-94.63839,41.439693]}},{"type":"Feature","properties":{"kind":"Wind","t_state":"IA","t_county":"Adair County","amount":124,"p_name":"Arbor Hill","p_year":2018},"geometry":{"type":"Point","coordinates":[-94.339027,41.405815]}},{"type":"Feature","properties":{"kind":"Wind","t_state":"IA","t_county":"Adair County","amount":16,"p_name":"Arbor Hill 2019","p_year":2020},"geometry":{"type":"Point","coordinates":[-94.345177,41.439922]}},{"type":"Feature","properties":{"kind":"Wind","t_state":"IA","t_county":"Adair County","amount":1,"p_name":"Bulldog","p_year":2010},"geometry":{"type":"Point","coordinates":[-94.440491,41.225693]}},{"type":"Feature","properties":{"kind":"Wind","t_state":"IA","t_county":"Adair County","amount":1,"p_name":"Cumberland Rose","p_year":2012},"geometry":{"type":"Point","coordinates":[-94.434891,41.227093]}},{"type":"Feature","properties":{"kind":"Wind","t_state":"IA","t_county":"Adair County","amount":1,"p_name":"Forward Fontanelle","p_year":2012},"geometry":{"type":"Point","coordinates":[-94.570694,41.339592]}},{"type":"Feature","properties":{"kind":"Wind","t_state":"IA","t_county":"Adair County","amount":1,"p_name":"Greenfield Wind","p_year":2012},"geometry":{"type":"Point","coordinates":[-94.488579,41.29052]}},{"type":"Feature","properties":{"kind":"Wind","t_state":"MO","t_county":"Adair County","amount":85,"p_name":"High Prairie","p_year":2020},"geometry":{"type":"Point","coordinates":[-92.485878,40.314217]}},{"type":"Feature","properties":{"kind":"Wind","t_state":"IA","t_county":"Adair County","amount":1,"p_name":"Meadow Ridge","p_year":2012},"geometry":{"type":"Point","coordinates":[-94.446289,41.390095]}},{"type":"Feature","properties":{"kind":"Wind","t_state":"IA","t_county":"Adair County","amount":44,"p_name":"Morning Light","p_year":2012},"geometry":{"type":"Point","coordinates":[-94.57769,41.407894]}},{"type":"Feature","properties":{"kind":"Wind","t_state":"IA","t_county":"Adair County","amount":193,"p_name":"Orient 2019","p_year":2019},"geometry":{"type":"Point","coordinates":[-94.46833,41.256752]}},{"type":"Feature","properties":{"kind":"Wind","t_state":"IA","t_county":"Adair County","amount":50,"p_name":"Orient I","p_year":2018},"geometry":{"type":"Point","coordinates":[-94.545006,41.205433]}},{"type":"Feature","properties":{"kind":"Wind","t_state":"IA","t_county":"Adair County","amount":19,"p_name":"Rolling Hills","p_year":2011},"geometry":{"type":"Point","coordinates":[-94.69899,41.228992]}},{"type":"Feature","properties":{"kind":"Wind","t_state":"IA","t_county":"Adair County","amount":1,"p_name":"Sky Volt","p_year":2012},"geometry":{"type":"Point","coordinates":[-94.485252,41.290779]}},{"type":"Feature","properties":{"kind":"Wind","t_state":"IA","t_county":"Adair County","amount":4,"p_name":"Southern Hills Expansion","p_year":2020},"geometry":{"type":"Point","coordinates":[-94.359634,41.159649]}},{"type":"Feature","properties":{"kind":"Wind","t_state":"IA","t_county":"Adair County","amount":1,"p_name":"Stuart","p_year":2005},"geometry":{"type":"Point","coordinates":[-94.327393,41.493992]}},{"type":"Feature","properties":{"kind":"Wind","t_state":"IA","t_county":"Adair County","amount":1,"p_name":"Wind GEM","p_year":2015},"geometry":{"type":"Point","coordinates":[-94.339256,41.469986]}},{"type":"Feature","properties":{"kind":"Wind","t_state":"IA","t_county":"Adair County","amount":1,"p_name":"Wolverine","p_year":2010},"geometry":{"type":"Point","coordinates":[-94.444794,41.393093]}},{"type":"Feature","properties":{"kind":"Wind","t_state":"IA","t_county":"Adair County","amount":7,"p_name":"unknown Adair County","p_year":2018},"geometry":{"type":"Point","coordinates":[-94.386971,41.183704]}},{"type":"Feature","properties":{"kind":"Wind","t_state":"IA","t_county":"Adams County","amount":64,"p_name":"Adams","p_year":2016},"geometry":{"type":"Point","coordinates":[-94.675438,40.933098]}},{"type":"Feature","properties":{"kind":"Wind","t_state":"NE","t_county":"Adams County","amount":1,"p_name":"Central Community College-Hastings","p_year":2016},"geometry":{"type":"Point","coordinates":[-98.334496,40.569241]}},{"type":"Feature","properties":{"kind":"Wind","t_state":"IL","t_county":"Adams County","amount":1,"p_name":"Pigeon Creek","p_year":2009},"geometry":{"type":"Point","coordinates":[-91.192268,39.833282]}},{"type":"Feature","properties":{"kind":"Wind","t_state":"WA","t_county":"Adams County","amount":56,"p_name":"Rattlesnake Flat","p_year":2020},"geometry":{"type":"Point","coordinates":[-118.429131,46.880329]}},{"type":"Feature","properties":{"kind":"Wind","t_state":"IA","t_county":"Adams County","amount":19,"p_name":"Rolling Hills","p_year":2011},"geometry":{"type":"Point","coordinates":[-94.778091,41.148891]}},{"type":"Feature","properties":{"kind":"Wind","t_state":"IA","t_county":"Adams County","amount":20,"p_name":"Southern Hills","p_year":2020},"geometry":{"type":"Point","coordinates":[-94.522133,41.063766]}},{"type":"Feature","properties":{"kind":"Wind","t_state":"IA","t_county":"Adams County","amount":5,"p_name":"Southern Hills Expansion","p_year":2020},"geometry":{"type":"Point","coordinates":[-94.477608,41.138123]}},{"type":"Feature","properties":{"kind":"Wind","t_state":"ND","t_county":"Adams County","amount":43,"p_name":"Thunder Spirit","p_year":2015},"geometry":{"type":"Point","coordinates":[-102.638069,46.084072]}},{"type":"Feature","properties":{"kind":"Wind","t_state":"ND","t_county":"Adams County","amount":16,"p_name":"Thunder Spirit II","p_year":2018},"geometry":{"type":"Point","coordinates":[-102.524971,46.058079]}},{"type":"Feature","properties":{"kind":"Wind","t_state":"VT","t_county":"Addison County","amount":1,"p_name":"unknown Addison County","p_year":2013},"geometry":{"type":"Point","coordinates":[-73.310699,44.002792]}},{"type":"Feature","properties":{"kind":"Wind","t_state":"CA","t_county":"Alameda County","amount":31,"p_name":"Diablo Winds","p_year":2004},"geometry":{"type":"Point","coordinates":[-121.649788,37.772095]}},{"type":"Feature","properties":{"kind":"Wind","t_state":"CA","t_county":"Alameda County","amount":48,"p_name":"Golden Hills","p_year":2015},"geometry":{"type":"Point","coordinates":[-121.619415,37.727455]}},{"type":"Feature","properties":{"kind":"Wind","t_state":"CA","t_county":"Alameda County","amount":20,"p_name":"Golden Hills North","p_year":2017},"geometry":{"type":"Point","coordinates":[-121.65612,37.779156]}},{"type":"Feature","properties":{"kind":"Wind","t_state":"CA","t_county":"Alameda County","amount":132,"p_name":"Patterson Pass","p_year":1985},"geometry":{"type":"Point","coordinates":[-121.622391,37.705994]}},{"type":"Feature","properties":{"kind":"Wind","t_state":"CA","t_county":"Alameda County","amount":73,"p_name":"Patterson Wind","p_year":1985},"geometry":{"type":"Point","coordinates":[-121.611046,37.693356]}},{"type":"Feature","properties":{"kind":"Wind","t_state":"CA","t_county":"Alameda County","amount":23,"p_name":"Summit Wind Repowering","p_year":2021},"geometry":{"type":"Point","coordinates":[-121.675331,37.77932]}},{"type":"Feature","properties":{"kind":"Wind","t_state":"CA","t_county":"Alameda County","amount":1,"p_name":"Vasco (repower)","p_year":2011},"geometry":{"type":"Point","coordinates":[-121.657784,37.791996]}},{"type":"Feature","properties":{"kind":"Wind","t_state":"CA","t_county":"Alameda County","amount":1,"p_name":"unknown Alameda County","p_year":2017},"geometry":{"type":"Point","coordinates":[-121.652328,37.784454]}},{"type":"Feature","properties":{"kind":"Wind","t_state":"WY","t_county":"Albany County","amount":66,"p_name":"High Plains","p_year":2009},"geometry":{"type":"Point","coordinates":[-105.997688,41.680794]}},{"type":"Feature","properties":{"kind":"Wind","t_state":"WY","t_county":"Albany County","amount":18,"p_name":"McFadden Ridge","p_year":2009},"geometry":{"type":"Point","coordinates":[-106.043991,41.664791]}},{"type":"Feature","properties":{"kind":"Wind","t_state":"AK","t_county":"Aleutians East Borough","amount":2,"p_name":"Sand Point","p_year":2012},"geometry":{"type":"Point","coordinates":[-160.489075,55.343601]}},{"type":"Feature","properties":{"kind":"Wind","t_state":"AK","t_county":"Aleutians West Census Area","amount":3,"p_name":"St. Paul Island I","p_year":1999},"geometry":{"type":"Point","coordinates":[-170.235947,57.157486]}},{"type":"Feature","properties":{"kind":"Wind","t_state":"OK","t_county":"Alfalfa County","amount":62,"p_name":"Skeleton Creek","p_year":2020},"geometry":{"type":"Point","coordinates":[-98.215881,36.466812]}},{"type":"Feature","properties":{"kind":"Wind","t_state":"OK","t_county":"Alfalfa County","amount":2,"p_name":"unknown Alfalfa County","p_year":2020},"geometry":{"type":"Point","coordinates":[-98.199677,36.497372]}},{"type":"Feature","properties":{"kind":"Wind","t_state":"NY","t_county":"Allegany County","amount":1,"p_name":"unknown Allegany County","p_year":2017},"geometry":{"type":"Point","coordinates":[-78.307854,42.519878]}},{"type":"Feature","properties":{"kind":"Wind","t_state":"KS","t_county":"Allen County","amount":59,"p_name":"Prairie Queen","p_year":2019},"geometry":{"type":"Point","coordinates":[-95.275574,37.952938]}},{"type":"Feature","properties":{"kind":"Wind","t_state":"TN","t_county":"Anderson County","amount":15,"p_name":"Buffalo Mountain","p_year":2004},"geometry":{"type":"Point","coordinates":[-84.354393,36.129093]}},{"type":"Feature","properties":{"kind":"Wind","t_state":"TN","t_county":"Anderson County","amount":3,"p_name":"Buffalo Mountain (Windrock)","p_year":2000},"geometry":{"type":"Point","coordinates":[-84.339096,36.121895]}},{"type":"Feature","properties":{"kind":"Wind","t_state":"TX","t_county":"Andrews County","amount":53,"p_name":"Jumbo Hill","p_year":2020},"geometry":{"type":"Point","coordinates":[-102.867386,32.366234]}},{"type":"Feature","properties":{"kind":"Wind","t_state":"TX","t_county":"Andrews County","amount":4,"p_name":"unknown Andrews County","p_year":""},"geometry":{"type":"Point","coordinates":[-103.022781,32.472294]}},{"type":"Feature","properties":{"kind":"Wind","t_state":"MN","t_county":"Anoka County","amount":1,"p_name":"Hometown WindPower Anoka","p_year":2010},"geometry":{"type":"Point","coordinates":[-93.38369,45.22728]}},{"type":"Feature","properties":{"kind":"Wind","t_state":"NE","t_county":"Antelope County","amount":99,"p_name":"Prairie Breeze","p_year":2014},"geometry":{"type":"Point","coordinates":[-98.210487,41.923393]}},{"type":"Feature","properties":{"kind":"Wind","t_state":"NE","t_county":"Antelope County","amount":28,"p_name":"Prairie Breeze II","p_year":2015},"geometry":{"type":"Point","coordinates":[-97.900833,41.972862]}},{"type":"Feature","properties":{"kind":"Wind","t_state":"NE","t_county":"Antelope County","amount":21,"p_name":"Prairie Breeze III","p_year":2016},"geometry":{"type":"Point","coordinates":[-97.94915,42.015652]}},{"type":"Feature","properties":{"kind":"Wind","t_state":"NE","t_county":"Antelope County","amount":80,"p_name":"Upstream","p_year":2018},"geometry":{"type":"Point","coordinates":[-98.144295,42.217777]}},{"type":"Feature","properties":{"kind":"Wind","t_state":"NE","t_county":"Antelope County","amount":78,"p_name":"unknown Antelope County","p_year":2020},"geometry":{"type":"Point","coordinates":[-98.188995,42.023499]}},{"type":"Feature","properties":{"kind":"Wind","t_state":"IA","t_county":"Appanoose County","amount":3,"p_name":"unknown Appanoose County","p_year":2021},"geometry":{"type":"Point","coordinates":[-92.85582,40.708679]}},{"type":"Feature","properties":{"kind":"Wind","t_state":"TX","t_county":"Archer County","amount":100,"p_name":"Bobcat Bluff","p_year":2012},"geometry":{"type":"Point","coordinates":[-98.573891,33.477795]}},{"type":"Feature","properties":{"kind":"Wind","t_state":"TX","t_county":"Archer County","amount":60,"p_name":"Trinity Hills","p_year":2012},"geometry":{"type":"Point","coordinates":[-98.633888,33.423195]}},{"type":"Feature","properties":{"kind":"Wind","t_state":"TX","t_county":"Archer County","amount":28,"p_name":"Windthorst-2","p_year":2014},"geometry":{"type":"Point","coordinates":[-98.49617,33.485413]}},{"type":"Feature","properties":{"kind":"Wind","t_state":"TX","t_county":"Armstrong County","amount":34,"p_name":"Route 66","p_year":2015},"geometry":{"type":"Point","coordinates":[-101.36821,35.155132]}},{"type":"Feature","properties":{"kind":"Wind","t_state":"ME","t_county":"Aroostook County","amount":28,"p_name":"Mars Hill","p_year":2007},"geometry":{"type":"Point","coordinates":[-67.813698,46.52319]}},{"type":"Feature","properties":{"kind":"Wind","t_state":"ME","t_county":"Aroostook County","amount":48,"p_name":"Oakfield Wind","p_year":2015},"geometry":{"type":"Point","coordinates":[-68.052597,46.06049]}},{"type":"Feature","properties":{"kind":"Wind","t_state":"ME","t_county":"Aroostook County","amount":1,"p_name":"Presque Isle","p_year":2009},"geometry":{"type":"Point","coordinates":[-68.020203,46.667389]}},{"type":"Feature","properties":{"kind":"Wind","t_state":"OH","t_county":"Ashtabula County","amount":1,"p_name":"Conneaut Middle School","p_year":2010},"geometry":{"type":"Point","coordinates":[-80.559395,41.926193]}},{"type":"Feature","properties":{"kind":"Wind","t_state":"OH","t_county":"Ashtabula County","amount":1,"p_name":"Conneaut Waste Water Treatment","p_year":2010},"geometry":{"type":"Point","coordinates":[-80.552094,41.968792]}},{"type":"Feature","properties":{"kind":"Wind","t_state":"MO","t_county":"Atchison County","amount":24,"p_name":"Cow Branch Wind Project","p_year":2008},"geometry":{"type":"Point","coordinates":[-95.459595,40.449291]}},{"type":"Feature","properties":{"kind":"Wind","t_state":"MO","t_county":"Atchison County","amount":73,"p_name":"Farmers City","p_year":2009},"geometry":{"type":"Point","coordinates":[-95.405495,40.578693]}},{"type":"Feature","properties":{"kind":"Wind","t_state":"MO","t_county":"Atchison County","amount":4,"p_name":"Loess Hills Wind Project","p_year":2008},"geometry":{"type":"Point","coordinates":[-95.540291,40.411491]}},{"type":"Feature","properties":{"kind":"Wind","t_state":"MO","t_county":"Atchison County","amount":150,"p_name":"Rock Creek","p_year":2017},"geometry":{"type":"Point","coordinates":[-95.227287,40.445702]}},{"type":"Feature","properties":{"kind":"Wind","t_state":"MO","t_county":"Atchison County","amount":91,"p_name":"unknown Atchison County","p_year":2021},"geometry":{"type":"Point","coordinates":[-95.269836,40.547894]}},{"type":"Feature","properties":{"kind":"Wind","t_state":"NJ","t_county":"Atlantic County","amount":5,"p_name":"Jersey Atlantic Wind Farm","p_year":2005},"geometry":{"type":"Point","coordinates":[-74.450401,39.382294]}},{"type":"Feature","properties":{"kind":"Wind","t_state":"IA","t_county":"Audubon County","amount":24,"p_name":"Eclipse","p_year":2012},"geometry":{"type":"Point","coordinates":[-94.73259,41.590195]}},{"type":"Feature","properties":{"kind":"Wind","t_state":"IA","t_county":"Audubon County","amount":36,"p_name":"Heartland Divide","p_year":2018},"geometry":{"type":"Point","coordinates":[-94.831985,41.755024]}},{"type":"Feature","properties":{"kind":"Wind","t_state":"IA","t_county":"Audubon County","amount":41,"p_name":"unknown Audubon County","p_year":2021},"geometry":{"type":"Point","coordinates":[-94.896248,41.796097]}},{"type":"Feature","properties":{"kind":"Wind","t_state":"SD","t_county":"Aurora County","amount":9,"p_name":"Aurora County Wind","p_year":2018},"geometry":{"type":"Point","coordinates":[-98.749001,43.72134]}},{"type":"Feature","properties":{"kind":"Wind","t_state":"SD","t_county":"Aurora County","amount":52,"p_name":"Crow Lake","p_year":2011},"geometry":{"type":"Point","coordinates":[-98.751991,43.914192]}},{"type":"Feature","properties":{"kind":"Wind","t_state":"CO","t_county":"Baca County","amount":1,"p_name":"Lamar III","p_year":2004},"geometry":{"type":"Point","coordinates":[-102.650894,37.362293]}},{"type":"Feature","properties":{"kind":"Wind","t_state":"TX","t_county":"Bailey County","amount":35,"p_name":"Blue Cloud I","p_year":2018},"geometry":{"type":"Point","coordinates":[-102.629799,34.077583]}},{"type":"Feature","properties":{"kind":"Wind","t_state":"OR","t_county":"Baker County","amount":5,"p_name":"Benson Creek","p_year":2017},"geometry":{"type":"Point","coordinates":[-117.276726,44.424286]}},{"type":"Feature","properties":{"kind":"Wind","t_state":"OR","t_county":"Baker County","amount":5,"p_name":"Durbin Creek","p_year":2017},"geometry":{"type":"Point","coordinates":[-117.320282,44.352703]}},{"type":"Feature","properties":{"kind":"Wind","t_state":"OR","t_county":"Baker County","amount":5,"p_name":"Jett Creek","p_year":2017},"geometry":{"type":"Point","coordinates":[-117.264969,44.425354]}},{"type":"Feature","properties":{"kind":"Wind","t_state":"OR","t_county":"Baker County","amount":6,"p_name":"Lime Wind","p_year":2011},"geometry":{"type":"Point","coordinates":[-117.270699,44.398544]}},{"type":"Feature","properties":{"kind":"Wind","t_state":"OR","t_county":"Baker County","amount":5,"p_name":"Prospector","p_year":2017},"geometry":{"type":"Point","coordinates":[-117.255295,44.4184]}},{"type":"Feature","properties":{"kind":"Wind","t_state":"OR","t_county":"Baker County","amount":5,"p_name":"Willow Spring","p_year":2017},"geometry":{"type":"Point","coordinates":[-117.272476,44.381859]}},{"type":"Feature","properties":{"kind":"Wind","t_state":"KS","t_county":"Barber County","amount":46,"p_name":"Flat Ridge 2","p_year":2012},"geometry":{"type":"Point","coordinates":[-98.375389,37.355392]}},{"type":"Feature","properties":{"kind":"Wind","t_state":"KS","t_county":"Barber County","amount":6,"p_name":"Flat Ridge 2 Expansion","p_year":2012},"geometry":{"type":"Point","coordinates":[-98.369492,37.380196]}},{"type":"Feature","properties":{"kind":"Wind","t_state":"KS","t_county":"Barber County","amount":18,"p_name":"Flat Ridge I","p_year":2009},"geometry":{"type":"Point","coordinates":[-98.444893,37.378593]}},{"type":"Feature","properties":{"kind":"Wind","t_state":"KS","t_county":"Barber County","amount":22,"p_name":"Flat Ridge Wind Farm","p_year":2009},"geometry":{"type":"Point","coordinates":[-98.533089,37.385796]}},{"type":"Feature","properties":{"kind":"Wind","t_state":"WV","t_county":"Barbour County","amount":35,"p_name":"Laurel Mountain","p_year":2011},"geometry":{"type":"Point","coordinates":[-79.8703,39.043694]}},{"type":"Feature","properties":{"kind":"Wind","t_state":"ND","t_county":"Barnes County","amount":39,"p_name":"Ashtabula III","p_year":2010},"geometry":{"type":"Point","coordinates":[-97.98069,47.095592]}},{"type":"Feature","properties":{"kind":"Wind","t_state":"ND","t_county":"Barnes County","amount":131,"p_name":"Ashtabula Wind Center","p_year":2008},"geometry":{"type":"Point","coordinates":[-97.916191,47.131992]}},{"type":"Feature","properties":{"kind":"Wind","t_state":"ND","t_county":"Barnes County","amount":1,"p_name":"Valley City Wind Turbine","p_year":2001},"geometry":{"type":"Point","coordinates":[-97.891174,46.918633]}},{"type":"Feature","properties":{"kind":"Wind","t_state":"MA","t_county":"Barnstable County","amount":2,"p_name":"6th Space Warning Squadron","p_year":2013},"geometry":{"type":"Point","coordinates":[-70.541801,41.752491]}},{"type":"Feature","properties":{"kind":"Wind","t_state":"MA","t_county":"Barnstable County","amount":2,"p_name":"AFCEE MMR Turbines","p_year":2011},"geometry":{"type":"Point","coordinates":[-70.545303,41.757591]}},{"type":"Feature","properties":{"kind":"Wind","t_state":"MA","t_county":"Barnstable County","amount":1,"p_name":"Air Force (Barnstable)","p_year":2009},"geometry":{"type":"Point","coordinates":[-70.591103,41.657692]}},{"type":"Feature","properties":{"kind":"Wind","t_state":"MA","t_county":"Barnstable County","amount":2,"p_name":"Barnstable Wastewater Treatment Facility","p_year":2010},"geometry":{"type":"Point","coordinates":[-70.306396,41.663692]}},{"type":"Feature","properties":{"kind":"Wind","t_state":"MA","t_county":"Barnstable County","amount":1,"p_name":"Cape Cod Regional Transit Authority","p_year":2010},"geometry":{"type":"Point","coordinates":[-70.144402,41.69009]}},{"type":"Feature","properties":{"kind":"Wind","t_state":"MA","t_county":"Barnstable County","amount":1,"p_name":"Falmouth II","p_year":2012},"geometry":{"type":"Point","coordinates":[-70.621498,41.609291]}},{"type":"Feature","properties":{"kind":"Wind","t_state":"MA","t_county":"Barnstable County","amount":1,"p_name":"Falmouth Notus","p_year":2010},"geometry":{"type":"Point","coordinates":[-70.608902,41.60849]}},{"type":"Feature","properties":{"kind":"Wind","t_state":"MA","t_county":"Barnstable County","amount":1,"p_name":"Falmouth Wastewater","p_year":2010},"geometry":{"type":"Point","coordinates":[-70.620796,41.605892]}},{"type":"Feature","properties":{"kind":"Wind","t_state":"MA","t_county":"Barnstable County","amount":1,"p_name":"Hyannis Country Garden","p_year":2008},"geometry":{"type":"Point","coordinates":[-70.310799,41.651291]}},{"type":"Feature","properties":{"kind":"Wind","t_state":"MA","t_county":"Barnstable County","amount":2,"p_name":"Massachusetts Maritime Academy","p_year":2006},"geometry":{"type":"Point","coordinates":[-70.623802,41.74139]}},{"type":"Feature","properties":{"kind":"Wind","t_state":"MA","t_county":"Barnstable County","amount":1,"p_name":"Woods Hole Research Center","p_year":2009},"geometry":{"type":"Point","coordinates":[-70.643204,41.548992]}},{"type":"Feature","properties":{"kind":"Wind","t_state":"MO","t_county":"Barton County","amount":69,"p_name":"North Fork Ridge","p_year":2020},"geometry":{"type":"Point","coordinates":[-94.493584,37.419827]}},{"type":"Feature","properties":{"kind":"Wind","t_state":"PR","t_county":"Bayamon Municipio","amount":1,"p_name":"Ft Buchanan Energy Savings Performance Con","p_year":2013},"geometry":{"type":"Point","coordinates":[-66.128632,18.416002]}},{"type":"Feature","properties":{"kind":"Wind","t_state":"TX","t_county":"Baylor County","amount":50,"p_name":"Green Pastures I","p_year":2015},"geometry":{"type":"Point","coordinates":[-99.362335,33.620354]}},{"type":"Feature","properties":{"kind":"Wind","t_state":"TX","t_county":"Baylor County","amount":3,"p_name":"Green Pastures II","p_year":2015},"geometry":{"type":"Point","coordinates":[-99.462944,33.63866]}},{"type":"Feature","properties":{"kind":"Wind","t_state":"TX","t_county":"Baylor County","amount":2,"p_name":"Griffin Trail Wind","p_year":2021},"geometry":{"type":"Point","coordinates":[-99.471489,33.610985]}},{"type":"Feature","properties":{"kind":"Wind","t_state":"TX","t_county":"Baylor County","amount":12,"p_name":"Seymour Hills","p_year":2019},"geometry":{"type":"Point","coordinates":[-99.213951,33.571438]}},{"type":"Feature","properties":{"kind":"Wind","t_state":"TX","t_county":"Baylor County","amount":48,"p_name":"Western Trail","p_year":2021},"geometry":{"type":"Point","coordinates":[-99.01181,33.812637]}},{"type":"Feature","properties":{"kind":"Wind","t_state":"TX","t_county":"Baylor County","amount":1,"p_name":"unknown Baylor County","p_year":""},"geometry":{"type":"Point","coordinates":[-99.077026,33.822117]}},{"type":"Feature","properties":{"kind":"Wind","t_state":"OK","t_county":"Beaver County","amount":162,"p_name":"Balko Wind","p_year":2015},"geometry":{"type":"Point","coordinates":[-100.90522,36.502724]}},{"type":"Feature","properties":{"kind":"Wind","t_state":"OK","t_county":"Beaver County","amount":60,"p_name":"Bluestem","p_year":2016},"geometry":{"type":"Point","coordinates":[-100.597717,36.527142]}},{"type":"Feature","properties":{"kind":"Wind","t_state":"UT","t_county":"Beaver County","amount":106,"p_name":"Milford Phase I","p_year":2009},"geometry":{"type":"Point","coordinates":[-112.915787,38.542294]}},{"type":"Feature","properties":{"kind":"Wind","t_state":"OK","t_county":"Beaver County","amount":99,"p_name":"Ponderosa","p_year":2020},"geometry":{"type":"Point","coordinates":[-100.665985,36.561722]}},{"type":"Feature","properties":{"kind":"Wind","t_state":"MN","t_county":"Becker County","amount":2,"p_name":"Lakeswind","p_year":2014},"geometry":{"type":"Point","coordinates":[-96.164589,46.735992]}},{"type":"Feature","properties":{"kind":"Wind","t_state":"MN","t_county":"Becker County","amount":1,"p_name":"White Earth Tribe","p_year":2018},"geometry":{"type":"Point","coordinates":[-95.859604,47.089199]}},{"type":"Feature","properties":{"kind":"Wind","t_state":"OK","t_county":"Beckham County","amount":5,"p_name":"Elk City II","p_year":2010},"geometry":{"type":"Point","coordinates":[-99.57019,35.445496]}},{"type":"Feature","properties":{"kind":"Wind","t_state":"TX","t_county":"Bee County","amount":29,"p_name":"Karankawa","p_year":2019},"geometry":{"type":"Point","coordinates":[-97.771568,28.174826]}},{"type":"Feature","properties":{"kind":"Wind","t_state":"TX","t_county":"Bee County","amount":7,"p_name":"unknown Bee County","p_year":2021},"geometry":{"type":"Point","coordinates":[-97.488113,28.243311]}},{"type":"Feature","properties":{"kind":"Wind","t_state":"VT","t_county":"Bennington County","amount":15,"p_name":"Deerfield Wind","p_year":2017},"geometry":{"type":"Point","coordinates":[-72.972214,42.85096]}},{"type":"Feature","properties":{"kind":"Wind","t_state":"VT","t_county":"Bennington County","amount":11,"p_name":"Green Mountain Power","p_year":1997},"geometry":{"type":"Point","coordinates":[-72.966301,42.85799]}},{"type":"Feature","properties":{"kind":"Wind","t_state":"CO","t_county":"Bent County","amount":50,"p_name":"Twin Buttes","p_year":2007},"geometry":{"type":"Point","coordinates":[-102.857292,37.666992]}},{"type":"Feature","properties":{"kind":"Wind","t_state":"IN","t_county":"Benton County","amount":65,"p_name":"Amazon Wind Farm (Fowler Ridge)","p_year":2015},"geometry":{"type":"Point","coordinates":[-87.414825,40.654613]}},{"type":"Feature","properties":{"kind":"Wind","t_state":"IN","t_county":"Benton County","amount":222,"p_name":"Fowler Ridge I","p_year":2009},"geometry":{"type":"Point","coordinates":[-87.349091,40.575394]}},{"type":"Feature","properties":{"kind":"Wind","t_state":"IN","t_county":"Benton County","amount":133,"p_name":"Fowler Ridge II","p_year":2009},"geometry":{"type":"Point","coordinates":[-87.419296,40.54129]}},{"type":"Feature","properties":{"kind":"Wind","t_state":"IN","t_county":"Benton County","amount":87,"p_name":"Goodland I","p_year":2008},"geometry":{"type":"Point","coordinates":[-87.502594,40.673893]}},{"type":"Feature","properties":{"kind":"Wind","t_state":"IN","t_county":"Benton County","amount":53,"p_name":"Hoosier","p_year":2009},"geometry":{"type":"Point","coordinates":[-87.199493,40.675091]}},{"type":"Feature","properties":{"kind":"Wind","t_state":"IN","t_county":"Benton County","amount":25,"p_name":"Jordan Creek","p_year":2020},"geometry":{"type":"Point","coordinates":[-87.509277,40.479897]}},{"type":"Feature","properties":{"kind":"Wind","t_state":"IN","t_county":"Benton County","amount":61,"p_name":"Meadow Lake VI","p_year":2018},"geometry":{"type":"Point","coordinates":[-87.142174,40.65583]}},{"type":"Feature","properties":{"kind":"Wind","t_state":"WA","t_county":"Benton County","amount":37,"p_name":"Nine Canyon","p_year":2002},"geometry":{"type":"Point","coordinates":[-119.09211,46.096073]}},{"type":"Feature","properties":{"kind":"Wind","t_state":"WA","t_county":"Benton County","amount":26,"p_name":"Nine Canyon II","p_year":2003},"geometry":{"type":"Point","coordinates":[-119.158089,46.110394]}},{"type":"Feature","properties":{"kind":"Wind","t_state":"MA","t_county":"Berkshire County","amount":10,"p_name":"Berkshire Wind","p_year":2011},"geometry":{"type":"Point","coordinates":[-73.275101,42.586491]}},{"type":"Feature","properties":{"kind":"Wind","t_state":"MA","t_county":"Berkshire County","amount":2,"p_name":"Berkshire Wind Power Project Phase II","p_year":2019},"geometry":{"type":"Point","coordinates":[-73.272575,42.596577]}},{"type":"Feature","properties":{"kind":"Wind","t_state":"MA","t_county":"Berkshire County","amount":11,"p_name":"Hoosac","p_year":2012},"geometry":{"type":"Point","coordinates":[-73.045601,42.72979]}},{"type":"Feature","properties":{"kind":"Wind","t_state":"MA","t_county":"Berkshire County","amount":1,"p_name":"Jiminy Peak Ski Resort","p_year":2007},"geometry":{"type":"Point","coordinates":[-73.292801,42.543793]}},{"type":"Feature","properties":{"kind":"Wind","t_state":"MA","t_county":"Berkshire County","amount":1,"p_name":"Otis Wind Energy Project","p_year":2017},"geometry":{"type":"Point","coordinates":[-73.025764,42.225765]}},{"type":"Feature","properties":{"kind":"Wind","t_state":"MA","t_county":"Berkshire County","amount":1,"p_name":"Williams Stone","p_year":2009},"geometry":{"type":"Point","coordinates":[-73.069901,42.234192]}},{"type":"Feature","properties":{"kind":"Wind","t_state":"AK","t_county":"Bethel Census Area","amount":1,"p_name":"Bethel Wind Turbine","p_year":2018},"geometry":{"type":"Point","coordinates":[-161.884445,60.781361]}},{"type":"Feature","properties":{"kind":"Wind","t_state":"AK","t_county":"Bethel Census Area","amount":3,"p_name":"Kasigluk","p_year":2006},"geometry":{"type":"Point","coordinates":[-162.514282,60.871201]}},{"type":"Feature","properties":{"kind":"Wind","t_state":"AK","t_county":"Bethel Census Area","amount":3,"p_name":"Quinhagak","p_year":2010},"geometry":{"type":"Point","coordinates":[-161.913086,59.740299]}},{"type":"Feature","properties":{"kind":"Wind","t_state":"AK","t_county":"Bethel Census Area","amount":3,"p_name":"Toksook Bay","p_year":2010},"geometry":{"type":"Point","coordinates":[-165.111298,60.525944]}},{"type":"Feature","properties":{"kind":"Wind","t_state":"AK","t_county":"Bethel Census Area","amount":1,"p_name":"Toksook Bay Expansion","p_year":2010},"geometry":{"type":"Point","coordinates":[-165.116974,60.526302]}},{"type":"Feature","properties":{"kind":"Wind","t_state":"AK","t_county":"Bethel Census Area","amount":5,"p_name":"Tuntutuliak","p_year":2012},"geometry":{"type":"Point","coordinates":[-162.662674,60.337399]}},{"type":"Feature","properties":{"kind":"Wind","t_state":"AK","t_county":"Bethel Census Area","amount":10,"p_name":"unknown Bethel Census Area","p_year":2012},"geometry":{"type":"Point","coordinates":[-163.156265,59.872612]}},{"type":"Feature","properties":{"kind":"Wind","t_state":"ID","t_county":"Bingham County","amount":15,"p_name":"Wolverine Creek","p_year":2005},"geometry":{"type":"Point","coordinates":[-111.852989,43.364796]}},{"type":"Feature","properties":{"kind":"Wind","t_state":"OK","t_county":"Blaine County","amount":11,"p_name":"Mammoth Plains","p_year":2014},"geometry":{"type":"Point","coordinates":[-98.629601,35.993454]}},{"type":"Feature","properties":{"kind":"Wind","t_state":"PA","t_county":"Blair County","amount":11,"p_name":"Allegheny Ridge","p_year":2007},"geometry":{"type":"Point","coordinates":[-78.549095,40.393494]}},{"type":"Feature","properties":{"kind":"Wind","t_state":"PA","t_county":"Blair County","amount":19,"p_name":"Chestnut Flats","p_year":2011},"geometry":{"type":"Point","coordinates":[-78.481895,40.535793]}},{"type":"Feature","properties":{"kind":"Wind","t_state":"PA","t_county":"Blair County","amount":13,"p_name":"North Allegheny","p_year":2009},"geometry":{"type":"Point","coordinates":[-78.5541,40.421692]}},{"type":"Feature","properties":{"kind":"Wind","t_state":"PA","t_county":"Blair County","amount":16,"p_name":"Sandy Ridge","p_year":2012},"geometry":{"type":"Point","coordinates":[-78.269394,40.728893]}},{"type":"Feature","properties":{"kind":"Wind","t_state":"SD","t_county":"Bon Homme County","amount":8,"p_name":"Beethoven Wind, LLC","p_year":2015},"geometry":{"type":"Point","coordinates":[-98.076668,43.162964]}},{"type":"Feature","properties":{"kind":"Wind","t_state":"SD","t_county":"Bon Homme County","amount":33,"p_name":"Prevailing Wind","p_year":2020},"geometry":{"type":"Point","coordinates":[-98.023033,43.156586]}},{"type":"Feature","properties":{"kind":"Wind","t_state":"ID","t_county":"Bonneville County","amount":83,"p_name":"Goshen North","p_year":2010},"geometry":{"type":"Point","coordinates":[-111.866188,43.437992]}},{"type":"Feature","properties":{"kind":"Wind","t_state":"ID","t_county":"Bonneville County","amount":32,"p_name":"Horse Butte","p_year":2012},"geometry":{"type":"Point","coordinates":[-111.722488,43.383392]}},{"type":"Feature","properties":{"kind":"Wind","t_state":"ID","t_county":"Bonneville County","amount":57,"p_name":"Meadow Creek","p_year":2012},"geometry":{"type":"Point","coordinates":[-111.829788,43.570892]}},{"type":"Feature","properties":{"kind":"Wind","t_state":"ID","t_county":"Bonneville County","amount":28,"p_name":"Wolverine Creek","p_year":2005},"geometry":{"type":"Point","coordinates":[-111.85759,43.369793]}},{"type":"Feature","properties":{"kind":"Wind","t_state":"IA","t_county":"Boone County","amount":1,"p_name":"30 MW Iowa DG Portfolio","p_year":2017},"geometry":{"type":"Point","coordinates":[-93.700424,41.977608]}},{"type":"Feature","properties":{"kind":"Wind","t_state":"IA","t_county":"Boone County","amount":44,"p_name":"Beaver Creek","p_year":2017},"geometry":{"type":"Point","coordinates":[-94.127876,42.105343]}},{"type":"Feature","properties":{"kind":"Wind","t_state":"NE","t_county":"Boone County","amount":54,"p_name":"Laredo Ridge","p_year":2011},"geometry":{"type":"Point","coordinates":[-98.023888,41.903294]}},{"type":"Feature","properties":{"kind":"Wind","t_state":"NE","t_county":"Boone County","amount":27,"p_name":"Petersburg","p_year":2011},"geometry":{"type":"Point","coordinates":[-97.966888,41.864391]}},{"type":"Feature","properties":{"kind":"Wind","t_state":"NE","t_county":"Boone County","amount":19,"p_name":"Prairie Breeze","p_year":2014},"geometry":{"type":"Point","coordinates":[-98.133392,41.892094]}},{"type":"Feature","properties":{"kind":"Wind","t_state":"NE","t_county":"Boone County","amount":13,"p_name":"Prairie Breeze II","p_year":2015},"geometry":{"type":"Point","coordinates":[-97.986748,41.894604]}},{"type":"Feature","properties":{"kind":"Wind","t_state":"TX","t_county":"Borden County","amount":64,"p_name":"Brazos Wind Ranch","p_year":2003},"geometry":{"type":"Point","coordinates":[-101.289993,32.945595]}},{"type":"Feature","properties":{"kind":"Wind","t_state":"TX","t_county":"Borden County","amount":179,"p_name":"Bull Creek","p_year":2008},"geometry":{"type":"Point","coordinates":[-101.580093,32.931694]}},{"type":"Feature","properties":{"kind":"Wind","t_state":"TX","t_county":"Borden County","amount":71,"p_name":"Gopher Creek Wind Farm","p_year":2019},"geometry":{"type":"Point","coordinates":[-101.293526,32.884846]}},{"type":"Feature","properties":{"kind":"Wind","t_state":"TX","t_county":"Borden County","amount":7,"p_name":"Mesquite Creek","p_year":2015},"geometry":{"type":"Point","coordinates":[-101.686752,32.699493]}},{"type":"Feature","properties":{"kind":"Wind","t_state":"TX","t_county":"Borden County","amount":30,"p_name":"Red Canyon Wind Energy","p_year":2006},"geometry":{"type":"Point","coordinates":[-101.274506,32.957348]}},{"type":"Feature","properties":{"kind":"Wind","t_state":"TX","t_county":"Borden County","amount":107,"p_name":"Stephens Ranch 1","p_year":2014},"geometry":{"type":"Point","coordinates":[-101.660973,32.903164]}},{"type":"Feature","properties":{"kind":"Wind","t_state":"KS","t_county":"Bourbon County","amount":46,"p_name":"unknown Bourbon County","p_year":2021},"geometry":{"type":"Point","coordinates":[-95.0382,37.737]}},{"type":"Feature","properties":{"kind":"Wind","t_state":"ND","t_county":"Bowman County","amount":13,"p_name":"Cedar Hills","p_year":2010},"geometry":{"type":"Point","coordinates":[-103.767387,46.245693]}},{"type":"Feature","properties":{"kind":"Wind","t_state":"PA","t_county":"Bradford County","amount":40,"p_name":"Armenia Mountain","p_year":2009},"geometry":{"type":"Point","coordinates":[-76.8918,41.772293]}},{"type":"Feature","properties":{"kind":"Wind","t_state":"IA","t_county":"Bremer County","amount":1,"p_name":"Cannon 1","p_year":2009},"geometry":{"type":"Point","coordinates":[-92.368904,42.73275]}},{"type":"Feature","properties":{"kind":"Wind","t_state":"IA","t_county":"Bremer County","amount":1,"p_name":"Cannon II","p_year":2012},"geometry":{"type":"Point","coordinates":[-92.368095,42.735493]}},{"type":"Feature","properties":{"kind":"Wind","t_state":"IA","t_county":"Bremer County","amount":1,"p_name":"Waverly III (Skeets 4)","p_year":2001},"geometry":{"type":"Point","coordinates":[-92.438759,42.762283]}},{"type":"Feature","properties":{"kind":"Wind","t_state":"TX","t_county":"Briscoe County","amount":81,"p_name":"Briscoe","p_year":2015},"geometry":{"type":"Point","coordinates":[-101.332375,34.369705]}},{"type":"Feature","properties":{"kind":"Wind","t_state":"TX","t_county":"Briscoe County","amount":42,"p_name":"Longhorn","p_year":2015},"geometry":{"type":"Point","coordinates":[-101.247864,34.330364]}},{"type":"Feature","properties":{"kind":"Wind","t_state":"MA","t_county":"Bristol County","amount":2,"p_name":"Fairhaven Wind","p_year":2012},"geometry":{"type":"Point","coordinates":[-70.8722,41.637192]}},{"type":"Feature","properties":{"kind":"Wind","t_state":"MA","t_county":"Bristol County","amount":1,"p_name":"Philips Lightolier","p_year":2012},"geometry":{"type":"Point","coordinates":[-71.116997,41.74609]}},{"type":"Feature","properties":{"kind":"Wind","t_state":"MA","t_county":"Bristol County","amount":1,"p_name":"University of Massachussetts Dartmouth","p_year":2012},"geometry":{"type":"Point","coordinates":[-71.010597,41.62669]}},{"type":"Feature","properties":{"kind":"Wind","t_state":"SD","t_county":"Brookings County","amount":24,"p_name":"Buffalo Ridge","p_year":2009},"geometry":{"type":"Point","coordinates":[-96.481293,44.385391]}},{"type":"Feature","properties":{"kind":"Wind","t_state":"SD","t_county":"Brookings County","amount":81,"p_name":"Buffalo Ridge II","p_year":2010},"geometry":{"type":"Point","coordinates":[-96.62249,44.523392]}},{"type":"Feature","properties":{"kind":"Wind","t_state":"SD","t_county":"Brookings County","amount":38,"p_name":"Coyote Ridge","p_year":2019},"geometry":{"type":"Point","coordinates":[-96.568329,44.449783]}},{"type":"Feature","properties":{"kind":"Wind","t_state":"SD","t_county":"Brookings County","amount":36,"p_name":"Minn-Dakota","p_year":2007},"geometry":{"type":"Point","coordinates":[-96.494392,44.331291]}},{"type":"Feature","properties":{"kind":"Wind","t_state":"SD","t_county":"Brookings County","amount":7,"p_name":"unknown Brookings County","p_year":""},"geometry":{"type":"Point","coordinates":[-96.575142,44.475903]}},{"type":"Feature","properties":{"kind":"Wind","t_state":"NE","t_county":"Brown County","amount":36,"p_name":"Ainsworth Wind Project (NPPD)","p_year":2005},"geometry":{"type":"Point","coordinates":[-99.934288,42.447792]}},{"type":"Feature","properties":{"kind":"Wind","t_state":"IL","t_county":"Brown County","amount":1,"p_name":"Brown County Wind Turbine","p_year":2011},"geometry":{"type":"Point","coordinates":[-90.699394,39.973492]}},{"type":"Feature","properties":{"kind":"Wind","t_state":"WI","t_county":"Brown County","amount":8,"p_name":"Shirley","p_year":2010},"geometry":{"type":"Point","coordinates":[-87.975494,44.336891]}},{"type":"Feature","properties":{"kind":"Wind","t_state":"TX","t_county":"Brown County","amount":1,"p_name":"unknown Brown County","p_year":2014},"geometry":{"type":"Point","coordinates":[-98.873093,31.956547]}},{"type":"Feature","properties":{"kind":"Wind","t_state":"SD","t_county":"Brule County","amount":9,"p_name":"Brule County Wind","p_year":2018},"geometry":{"type":"Point","coordinates":[-98.917519,43.706532]}},{"type":"Feature","properties":{"kind":"Wind","t_state":"SD","t_county":"Brule County","amount":2,"p_name":"Chamberlain Wind Project","p_year":2001},"geometry":{"type":"Point","coordinates":[-99.246994,43.849392]}},{"type":"Feature","properties":{"kind":"Wind","t_state":"SD","t_county":"Brule County","amount":22,"p_name":"Crow Lake","p_year":2010},"geometry":{"type":"Point","coordinates":[-98.837494,43.850594]}},{"type":"Feature","properties":{"kind":"Wind","t_state":"SD","t_county":"Brule County","amount":6,"p_name":"South Dakota Wind Partners","p_year":2011},"geometry":{"type":"Point","coordinates":[-98.834892,43.919792]}},{"type":"Feature","properties":{"kind":"Wind","t_state":"IA","t_county":"Buchanan County","amount":1,"p_name":"Burco Farm & Feed","p_year":2010},"geometry":{"type":"Point","coordinates":[-91.887505,42.563808]}},{"type":"Feature","properties":{"kind":"Wind","t_state":"IA","t_county":"Buena Vista County","amount":24,"p_name":"Intrepid","p_year":2004},"geometry":{"type":"Point","coordinates":[-95.36927,42.568394]}},{"type":"Feature","properties":{"kind":"Wind","t_state":"IA","t_county":"Buena Vista County","amount":6,"p_name":"Intrepid Expansion","p_year":2005},"geometry":{"type":"Point","coordinates":[-95.378693,42.567291]}},{"type":"Feature","properties":{"kind":"Wind","t_state":"IA","t_county":"Buena Vista County","amount":137,"p_name":"Storm Lake I","p_year":1999},"geometry":{"type":"Point","coordinates":[-95.305099,42.716808]}},{"type":"Feature","properties":{"kind":"Wind","t_state":"IA","t_county":"Buena Vista County","amount":90,"p_name":"Storm Lake II","p_year":1999},"geometry":{"type":"Point","coordinates":[-95.316093,42.79689]}},{"type":"Feature","properties":{"kind":"Wind","t_state":"IA","t_county":"Buena Vista County","amount":2,"p_name":"Waverly","p_year":1999},"geometry":{"type":"Point","coordinates":[-95.262627,42.687683]}},{"type":"Feature","properties":{"kind":"Wind","t_state":"IA","t_county":"Buena Vista County","amount":1,"p_name":"unknown Buena Vista County","p_year":""},"geometry":{"type":"Point","coordinates":[-95.362892,42.851891]}},{"type":"Feature","properties":{"kind":"Wind","t_state":"IL","t_county":"Bureau County","amount":4,"p_name":"Agriwind","p_year":2008},"geometry":{"type":"Point","coordinates":[-89.614494,41.300793]}},{"type":"Feature","properties":{"kind":"Wind","t_state":"IL","t_county":"Bureau County","amount":56,"p_name":"Big Sky Wind","p_year":2011},"geometry":{"type":"Point","coordinates":[-89.49839,41.548092]}},{"type":"Feature","properties":{"kind":"Wind","t_state":"IL","t_county":"Bureau County","amount":1,"p_name":"Bureau Valley School District","p_year":2004},"geometry":{"type":"Point","coordinates":[-89.678192,41.453392]}},{"type":"Feature","properties":{"kind":"Wind","t_state":"IL","t_county":"Bureau County","amount":14,"p_name":"Crescent Ridge I","p_year":2005},"geometry":{"type":"Point","coordinates":[-89.569092,41.225594]}},{"type":"Feature","properties":{"kind":"Wind","t_state":"IL","t_county":"Bureau County","amount":32,"p_name":"Lone Tree","p_year":2020},"geometry":{"type":"Point","coordinates":[-89.576424,41.217464]}},{"type":"Feature","properties":{"kind":"Wind","t_state":"IL","t_county":"Bureau County","amount":35,"p_name":"Providence Heights","p_year":2008},"geometry":{"type":"Point","coordinates":[-89.577095,41.203392]}},{"type":"Feature","properties":{"kind":"Wind","t_state":"IL","t_county":"Bureau County","amount":105,"p_name":"Walnut Ridge","p_year":2018},"geometry":{"type":"Point","coordinates":[-89.594749,41.509235]}},{"type":"Feature","properties":{"kind":"Wind","t_state":"IL","t_county":"Bureau County","amount":16,"p_name":"unknown Bureau County","p_year":2021},"geometry":{"type":"Point","coordinates":[-89.579041,41.246346]}},{"type":"Feature","properties":{"kind":"Wind","t_state":"ND","t_county":"Burke County","amount":74,"p_name":"Northern Divide (Burke)","p_year":2020},"geometry":{"type":"Point","coordinates":[-102.812759,48.783962]}},{"type":"Feature","properties":{"kind":"Wind","t_state":"ND","t_county":"Burke County","amount":1,"p_name":"unknown Burke County","p_year":2020},"geometry":{"type":"Point","coordinates":[-102.803055,48.801987]}},{"type":"Feature","properties":{"kind":"Wind","t_state":"ND","t_county":"Burleigh County","amount":64,"p_name":"Baldwin","p_year":2010},"geometry":{"type":"Point","coordinates":[-100.661987,47.184593]}},{"type":"Feature","properties":{"kind":"Wind","t_state":"ND","t_county":"Burleigh County","amount":32,"p_name":"Wilton Wind Energy Center II","p_year":2009},"geometry":{"type":"Point","coordinates":[-100.546692,47.119892]}},{"type":"Feature","properties":{"kind":"Wind","t_state":"ND","t_county":"Burleigh County","amount":33,"p_name":"Wilton Wind Farm","p_year":2005},"geometry":{"type":"Point","coordinates":[-100.735191,47.12479]}},{"type":"Feature","properties":{"kind":"Wind","t_state":"KS","t_county":"Butler County","amount":1,"p_name":"El Dorado Wind Power","p_year":2012},"geometry":{"type":"Point","coordinates":[-96.851089,37.796993]}},{"type":"Feature","properties":{"kind":"Wind","t_state":"KS","t_county":"Butler County","amount":100,"p_name":"Elk River","p_year":2005},"geometry":{"type":"Point","coordinates":[-96.545593,37.601894]}},{"type":"Feature","properties":{"kind":"Wind","t_state":"NE","t_county":"Butler County","amount":1,"p_name":"unknown Butler County","p_year":2012},"geometry":{"type":"Point","coordinates":[-97.111458,41.205013]}},{"type":"Feature","properties":{"kind":"Wind","t_state":"SD","t_county":"Butte County","amount":38,"p_name":"Willow Creek Wind Energy","p_year":2020},"geometry":{"type":"Point","coordinates":[-103.250008,44.921261]}},{"type":"Feature","properties":{"kind":"Wind","t_state":"OK","t_county":"Caddo County","amount":16,"p_name":"Blue Canyon I","p_year":2003},"geometry":{"type":"Point","coordinates":[-98.598694,34.860493]}},{"type":"Feature","properties":{"kind":"Wind","t_state":"OK","t_county":"Caddo County","amount":19,"p_name":"Blue Canyon II","p_year":2005},"geometry":{"type":"Point","coordinates":[-98.619255,34.884659]}},{"type":"Feature","properties":{"kind":"Wind","t_state":"OK","t_county":"Caddo County","amount":55,"p_name":"Blue Canyon VI","p_year":2011},"geometry":{"type":"Point","coordinates":[-98.574791,34.929295]}},{"type":"Feature","properties":{"kind":"Wind","t_state":"OK","t_county":"Caddo County","amount":13,"p_name":"Minco II","p_year":2011},"geometry":{"type":"Point","coordinates":[-98.134789,35.318092]}},{"type":"Feature","properties":{"kind":"Wind","t_state":"OK","t_county":"Caddo County","amount":33,"p_name":"Minco III","p_year":2012},"geometry":{"type":"Point","coordinates":[-98.118492,35.343395]}},{"type":"Feature","properties":{"kind":"Wind","t_state":"OK","t_county":"Caddo County","amount":34,"p_name":"Minco IV","p_year":2018},"geometry":{"type":"Point","coordinates":[-98.461861,35.525299]}},{"type":"Feature","properties":{"kind":"Wind","t_state":"OK","t_county":"Caddo County","amount":112,"p_name":"unknown Caddo County","p_year":2021},"geometry":{"type":"Point","coordinates":[-98.458725,35.009132]}},{"type":"Feature","properties":{"kind":"Wind","t_state":"VT","t_county":"Caledonia County","amount":16,"p_name":"Sheffield","p_year":2011},"geometry":{"type":"Point","coordinates":[-72.091599,44.681789]}},{"type":"Feature","properties":{"kind":"Wind","t_state":"IA","t_county":"Calhoun County","amount":8,"p_name":"Pomeroy (expansion)","p_year":2011},"geometry":{"type":"Point","coordinates":[-94.745789,42.558193]}},{"type":"Feature","properties":{"kind":"Wind","t_state":"TX","t_county":"Callahan County","amount":27,"p_name":"Lone Star II","p_year":2008},"geometry":{"type":"Point","coordinates":[-99.464493,32.498493]}},{"type":"Feature","properties":{"kind":"Wind","t_state":"TX","t_county":"Callahan County","amount":86,"p_name":"unknown Callahan County","p_year":2021},"geometry":{"type":"Point","coordinates":[-99.55056,32.489456]}},{"type":"Feature","properties":{"kind":"Wind","t_state":"PA","t_county":"Cambria County","amount":31,"p_name":"Allegheny Ridge","p_year":2007},"geometry":{"type":"Point","coordinates":[-78.601295,40.354794]}},{"type":"Feature","properties":{"kind":"Wind","t_state":"PA","t_county":"Cambria County","amount":30,"p_name":"Highland North","p_year":2012},"geometry":{"type":"Point","coordinates":[-78.704399,40.314194]}},{"type":"Feature","properties":{"kind":"Wind","t_state":"PA","t_county":"Cambria County","amount":25,"p_name":"Highland Wind Project","p_year":2009},"geometry":{"type":"Point","coordinates":[-78.709595,40.287792]}},{"type":"Feature","properties":{"kind":"Wind","t_state":"PA","t_county":"Cambria County","amount":20,"p_name":"North Allegheny","p_year":2009},"geometry":{"type":"Point","coordinates":[-78.584198,40.397892]}},{"type":"Feature","properties":{"kind":"Wind","t_state":"PA","t_county":"Cambria County","amount":15,"p_name":"Patton Wind Farm","p_year":2012},"geometry":{"type":"Point","coordinates":[-78.697151,40.645256]}},{"type":"Feature","properties":{"kind":"Wind","t_state":"TX","t_county":"Cameron County","amount":55,"p_name":"Cameron","p_year":2015},"geometry":{"type":"Point","coordinates":[-97.494919,26.140795]}},{"type":"Feature","properties":{"kind":"Wind","t_state":"TX","t_county":"Cameron County","amount":21,"p_name":"East Raymond","p_year":2020},"geometry":{"type":"Point","coordinates":[-97.760185,26.282801]}},{"type":"Feature","properties":{"kind":"Wind","t_state":"TX","t_county":"Cameron County","amount":61,"p_name":"La Chalupa","p_year":2021},"geometry":{"type":"Point","coordinates":[-97.536575,26.272388]}},{"type":"Feature","properties":{"kind":"Wind","t_state":"TX","t_county":"Cameron County","amount":20,"p_name":"Los Vientos I","p_year":2012},"geometry":{"type":"Point","coordinates":[-97.568092,26.301895]}},{"type":"Feature","properties":{"kind":"Wind","t_state":"TX","t_county":"Cameron County","amount":46,"p_name":"Palmas Altas","p_year":2019},"geometry":{"type":"Point","coordinates":[-97.496071,26.273603]}},{"type":"Feature","properties":{"kind":"Wind","t_state":"TX","t_county":"Cameron County","amount":31,"p_name":"San Roman","p_year":2016},"geometry":{"type":"Point","coordinates":[-97.375328,26.111774]}},{"type":"Feature","properties":{"kind":"Wind","t_state":"TX","t_county":"Cameron County","amount":16,"p_name":"West Raymond","p_year":2021},"geometry":{"type":"Point","coordinates":[-97.835365,26.326559]}},{"type":"Feature","properties":{"kind":"Wind","t_state":"TX","t_county":"Cameron County","amount":14,"p_name":"unknown Cameron County","p_year":2020},"geometry":{"type":"Point","coordinates":[-97.459846,26.276289]}},{"type":"Feature","properties":{"kind":"Wind","t_state":"SD","t_county":"Campbell County","amount":55,"p_name":"Campbell County","p_year":2015},"geometry":{"type":"Point","coordinates":[-100.226204,45.745224]}},{"type":"Feature","properties":{"kind":"Wind","t_state":"OK","t_county":"Canadian County","amount":135,"p_name":"Canadian Hills","p_year":2012},"geometry":{"type":"Point","coordinates":[-98.09819,35.646294]}},{"type":"Feature","properties":{"kind":"Wind","t_state":"OK","t_county":"Canadian County","amount":50,"p_name":"Kingfisher Wind","p_year":2015},"geometry":{"type":"Point","coordinates":[-97.930305,35.66481]}},{"type":"Feature","properties":{"kind":"Wind","t_state":"OK","t_county":"Canadian County","amount":29,"p_name":"Minco III","p_year":2012},"geometry":{"type":"Point","coordinates":[-98.107491,35.382595]}},{"type":"Feature","properties":{"kind":"Wind","t_state":"OK","t_county":"Canadian County","amount":25,"p_name":"Minco IV","p_year":2018},"geometry":{"type":"Point","coordinates":[-98.265289,35.403725]}},{"type":"Feature","properties":{"kind":"Wind","t_state":"OK","t_county":"Canadian County","amount":1,"p_name":"unknown Canadian County","p_year":2014},"geometry":{"type":"Point","coordinates":[-98.028297,35.492928]}},{"type":"Feature","properties":{"kind":"Wind","t_state":"WY","t_county":"Carbon County","amount":1,"p_name":"BLM-JCI","p_year":2010},"geometry":{"type":"Point","coordinates":[-107.241638,41.797478]}},{"type":"Feature","properties":{"kind":"Wind","t_state":"WY","t_county":"Carbon County","amount":74,"p_name":"Dunlap","p_year":2010},"geometry":{"type":"Point","coordinates":[-106.212288,42.031693]}},{"type":"Feature","properties":{"kind":"Wind","t_state":"WY","t_county":"Carbon County","amount":58,"p_name":"Ekola Flats","p_year":2020},"geometry":{"type":"Point","coordinates":[-106.278732,41.93454]}},{"type":"Feature","properties":{"kind":"Wind","t_state":"WY","t_county":"Carbon County","amount":33,"p_name":"Foote Creek 3","p_year":1999},"geometry":{"type":"Point","coordinates":[-106.190201,41.660831]}},{"type":"Feature","properties":{"kind":"Wind","t_state":"WY","t_county":"Carbon County","amount":29,"p_name":"Foote Creek 4","p_year":2000},"geometry":{"type":"Point","coordinates":[-106.180527,41.674355]}},{"type":"Feature","properties":{"kind":"Wind","t_state":"WY","t_county":"Carbon County","amount":1,"p_name":"Foote Creek I Repower","p_year":2021},"geometry":{"type":"Point","coordinates":[-106.189369,41.65247]}},{"type":"Feature","properties":{"kind":"Wind","t_state":"WY","t_county":"Carbon County","amount":1,"p_name":"Foote Creek Rim II","p_year":1999},"geometry":{"type":"Point","coordinates":[-106.189262,41.656796]}},{"type":"Feature","properties":{"kind":"Wind","t_state":"WY","t_county":"Carbon County","amount":1,"p_name":"Foote Creek Rim II","p_year":1999},"geometry":{"type":"Point","coordinates":[-106.18927,41.65749]}},{"type":"Feature","properties":{"kind":"Wind","t_state":"WY","t_county":"Carbon County","amount":9,"p_name":"Medicine Bow","p_year":1998},"geometry":{"type":"Point","coordinates":[-106.247787,41.840591]}},{"type":"Feature","properties":{"kind":"Wind","t_state":"MT","t_county":"Carbon County","amount":111,"p_name":"Pryor Mountain","p_year":2021},"geometry":{"type":"Point","coordinates":[-108.676743,45.125679]}},{"type":"Feature","properties":{"kind":"Wind","t_state":"WY","t_county":"Carbon County","amount":49,"p_name":"Rock River I","p_year":2001},"geometry":{"type":"Point","coordinates":[-106.122101,41.715748]}},{"type":"Feature","properties":{"kind":"Wind","t_state":"WY","t_county":"Carbon County","amount":79,"p_name":"Seven Mile Hill I & II","p_year":2008},"geometry":{"type":"Point","coordinates":[-106.420792,41.971294]}},{"type":"Feature","properties":{"kind":"Wind","t_state":"WY","t_county":"Carbon County","amount":132,"p_name":"TB Flats I & II","p_year":2020},"geometry":{"type":"Point","coordinates":[-106.12027,42.16433]}},{"type":"Feature","properties":{"kind":"Wind","t_state":"WY","t_county":"Carbon County","amount":42,"p_name":"unknown Carbon County","p_year":2020},"geometry":{"type":"Point","coordinates":[-106.278893,41.941605]}},{"type":"Feature","properties":{"kind":"Wind","t_state":"IA","t_county":"Carroll County","amount":100,"p_name":"Carroll","p_year":2008},"geometry":{"type":"Point","coordinates":[-94.957893,42.146694]}},{"type":"Feature","properties":{"kind":"Wind","t_state":"IA","t_county":"Carroll County","amount":9,"p_name":"Carroll Area","p_year":2015},"geometry":{"type":"Point","coordinates":[-94.890419,41.937332]}},{"type":"Feature","properties":{"kind":"Wind","t_state":"IA","t_county":"Carroll County","amount":23,"p_name":"Victory(Carroll)","p_year":2006},"geometry":{"type":"Point","coordinates":[-95.041161,42.130638]}},{"type":"Feature","properties":{"kind":"Wind","t_state":"TX","t_county":"Carson County","amount":118,"p_name":"Grandview I","p_year":2014},"geometry":{"type":"Point","coordinates":[-101.273476,35.215378]}},{"type":"Feature","properties":{"kind":"Wind","t_state":"TX","t_county":"Carson County","amount":67,"p_name":"Grandview II (Colbeck's Corner)","p_year":2016},"geometry":{"type":"Point","coordinates":[-101.091965,35.355526]}},{"type":"Feature","properties":{"kind":"Wind","t_state":"TX","t_county":"Carson County","amount":80,"p_name":"Llano Estacado Wind Ranch at White Deer","p_year":2001},"geometry":{"type":"Point","coordinates":[-101.193993,35.452293]}},{"type":"Feature","properties":{"kind":"Wind","t_state":"TX","t_county":"Carson County","amount":53,"p_name":"Majestic I","p_year":2009},"geometry":{"type":"Point","coordinates":[-101.518188,35.404095]}},{"type":"Feature","properties":{"kind":"Wind","t_state":"TX","t_county":"Carson County","amount":51,"p_name":"Majestic II","p_year":2012},"geometry":{"type":"Point","coordinates":[-101.585022,35.409809]}},{"type":"Feature","properties":{"kind":"Wind","t_state":"TX","t_county":"Carson County","amount":118,"p_name":"Panhandle Wind 1","p_year":2014},"geometry":{"type":"Point","coordinates":[-101.30899,35.434494]}},{"type":"Feature","properties":{"kind":"Wind","t_state":"TX","t_county":"Carson County","amount":79,"p_name":"Panhandle Wind 2","p_year":2014},"geometry":{"type":"Point","coordinates":[-101.391891,35.455723]}},{"type":"Feature","properties":{"kind":"Wind","t_state":"TX","t_county":"Carson County","amount":5,"p_name":"Pantex Renewable Energy Project","p_year":2014},"geometry":{"type":"Point","coordinates":[-101.535988,35.322693]}},{"type":"Feature","properties":{"kind":"Wind","t_state":"TX","t_county":"Carson County","amount":41,"p_name":"Route 66","p_year":2015},"geometry":{"type":"Point","coordinates":[-101.511871,35.214485]}},{"type":"Feature","properties":{"kind":"Wind","t_state":"TX","t_county":"Carson County","amount":8,"p_name":"Wege Wind Farm","p_year":2008},"geometry":{"type":"Point","coordinates":[-101.540092,35.350395]}},{"type":"Feature","properties":{"kind":"Wind","t_state":"OK","t_county":"Carter County","amount":9,"p_name":"Arbuckle Mountain","p_year":2015},"geometry":{"type":"Point","coordinates":[-97.154617,34.359192]}},{"type":"Feature","properties":{"kind":"Wind","t_state":"MN","t_county":"Carver County","amount":1,"p_name":"Hometown WindPower Chaska","p_year":2010},"geometry":{"type":"Point","coordinates":[-93.579567,44.821636]}},{"type":"Feature","properties":{"kind":"Wind","t_state":"MT","t_county":"Cascade County","amount":6,"p_name":"Horseshoe Bend/ranch pit","p_year":2006},"geometry":{"type":"Point","coordinates":[-111.437584,47.499191]}},{"type":"Feature","properties":{"kind":"Wind","t_state":"IA","t_county":"Cass County","amount":12,"p_name":"Adair","p_year":2008},"geometry":{"type":"Point","coordinates":[-94.71209,41.468391]}},{"type":"Feature","properties":{"kind":"Wind","t_state":"IA","t_county":"Cass County","amount":1,"p_name":"Green Energy Machine","p_year":2016},"geometry":{"type":"Point","coordinates":[-94.75351,41.37022]}},{"type":"Feature","properties":{"kind":"Wind","t_state":"IA","t_county":"Cass County","amount":155,"p_name":"Rolling Hills","p_year":2011},"geometry":{"type":"Point","coordinates":[-94.774292,41.197193]}},{"type":"Feature","properties":{"kind":"Wind","t_state":"IA","t_county":"Cass County","amount":1,"p_name":"Roseman Energy LLC","p_year":2017},"geometry":{"type":"Point","coordinates":[-94.753922,41.373135]}},{"type":"Feature","properties":{"kind":"Wind","t_state":"IA","t_county":"Cass County","amount":1,"p_name":"Wiota Wind","p_year":2012},"geometry":{"type":"Point","coordinates":[-94.876793,41.391495]}},{"type":"Feature","properties":{"kind":"Wind","t_state":"ND","t_county":"Cass County","amount":1,"p_name":"unknown Cass County","p_year":2011},"geometry":{"type":"Point","coordinates":[-96.836243,46.921913]}},{"type":"Feature","properties":{"kind":"Wind","t_state":"ID","t_county":"Cassia County","amount":13,"p_name":"Burley Butte","p_year":2011},"geometry":{"type":"Point","coordinates":[-113.918991,42.499195]}},{"type":"Feature","properties":{"kind":"Wind","t_state":"ID","t_county":"Cassia County","amount":8,"p_name":"Golden Valley","p_year":2011},"geometry":{"type":"Point","coordinates":[-113.906891,42.432995]}},{"type":"Feature","properties":{"kind":"Wind","t_state":"ID","t_county":"Cassia County","amount":13,"p_name":"Milner Dam","p_year":2011},"geometry":{"type":"Point","coordinates":[-114.018089,42.458294]}},{"type":"Feature","properties":{"kind":"Wind","t_state":"TX","t_county":"Castro County","amount":120,"p_name":"Bethel","p_year":2017},"geometry":{"type":"Point","coordinates":[-102.44561,34.512852]}},{"type":"Feature","properties":{"kind":"Wind","t_state":"TX","t_county":"Castro County","amount":162,"p_name":"Jumbo Road","p_year":2015},"geometry":{"type":"Point","coordinates":[-102.244034,34.690273]}},{"type":"Feature","properties":{"kind":"Wind","t_state":"PR","t_county":"Catano Municipio","amount":2,"p_name":"Bacardi Puerto Rico","p_year":""},"geometry":{"type":"Point","coordinates":[-66.138809,18.459276]}},{"type":"Feature","properties":{"kind":"Wind","t_state":"NM","t_county":"Catron County","amount":34,"p_name":"unknown Catron County","p_year":""},"geometry":{"type":"Point","coordinates":[-108.887581,34.153351]}},{"type":"Feature","properties":{"kind":"Wind","t_state":"ND","t_county":"Cavalier County","amount":78,"p_name":"Langdon","p_year":2007},"geometry":{"type":"Point","coordinates":[-98.304688,48.689194]}},{"type":"Feature","properties":{"kind":"Wind","t_state":"ND","t_county":"Cavalier County","amount":27,"p_name":"Langdon - OTP","p_year":2008},"geometry":{"type":"Point","coordinates":[-98.238792,48.714993]}},{"type":"Feature","properties":{"kind":"Wind","t_state":"ND","t_county":"Cavalier County","amount":28,"p_name":"Langdon II","p_year":2008},"geometry":{"type":"Point","coordinates":[-98.348686,48.624691]}},{"type":"Feature","properties":{"kind":"Wind","t_state":"NY","t_county":"Cayuga County","amount":1,"p_name":"unknown Cayuga County","p_year":2016},"geometry":{"type":"Point","coordinates":[-76.582039,42.663563]}},{"type":"Feature","properties":{"kind":"Wind","t_state":"IA","t_county":"Cedar County","amount":2,"p_name":"Pioneer Grove","p_year":2012},"geometry":{"type":"Point","coordinates":[-91.231194,41.854393]}},{"type":"Feature","properties":{"kind":"Wind","t_state":"PR","t_county":"Ceiba Municipio","amount":1,"p_name":"Ft Buchanan Energy Savings Performance Con","p_year":2013},"geometry":{"type":"Point","coordinates":[-65.610001,18.231634]}},{"type":"Feature","properties":{"kind":"Wind","t_state":"PA","t_county":"Centre County","amount":9,"p_name":"Sandy Ridge","p_year":2012},"geometry":{"type":"Point","coordinates":[-78.237396,40.753094]}},{"type":"Feature","properties":{"kind":"Wind","t_state":"IA","t_county":"Cerro Gordo County","amount":16,"p_name":"Cerro Gordo Repower","p_year":2020},"geometry":{"type":"Point","coordinates":[-93.464455,43.07914]}},{"type":"Feature","properties":{"kind":"Wind","t_state":"IA","t_county":"Cerro Gordo County","amount":2,"p_name":"Cerro Gordo/Hawkeye Power/Clear Lake","p_year":1999},"geometry":{"type":"Point","coordinates":[-93.433212,43.062603]}},{"type":"Feature","properties":{"kind":"Wind","t_state":"IA","t_county":"Cerro Gordo County","amount":3,"p_name":"Mason City Wind","p_year":2020},"geometry":{"type":"Point","coordinates":[-93.100418,43.144581]}},{"type":"Feature","properties":{"kind":"Wind","t_state":"IA","t_county":"Cerro Gordo County","amount":5,"p_name":"Mason Wind LLC Mason City","p_year":2017},"geometry":{"type":"Point","coordinates":[-93.229126,43.099087]}},{"type":"Feature","properties":{"kind":"Wind","t_state":"IL","t_county":"Champaign County","amount":30,"p_name":"California Ridge","p_year":2012},"geometry":{"type":"Point","coordinates":[-87.94519,40.249992]}},{"type":"Feature","properties":{"kind":"Wind","t_state":"IL","t_county":"Champaign County","amount":1,"p_name":"MUTI","p_year":2010},"geometry":{"type":"Point","coordinates":[-88.29142,40.1502]}},{"type":"Feature","properties":{"kind":"Wind","t_state":"IL","t_county":"Champaign County","amount":1,"p_name":"unknown Champaign County","p_year":2016},"geometry":{"type":"Point","coordinates":[-88.244324,40.088814]}},{"type":"Feature","properties":{"kind":"Wind","t_state":"SD","t_county":"Charles Mix County","amount":19,"p_name":"Beethoven Wind, LLC","p_year":2015},"geometry":{"type":"Point","coordinates":[-98.114914,43.146214]}},{"type":"Feature","properties":{"kind":"Wind","t_state":"SD","t_county":"Charles Mix County","amount":19,"p_name":"Prevailing Wind","p_year":2020},"geometry":{"type":"Point","coordinates":[-98.135529,43.109406]}},{"type":"Feature","properties":{"kind":"Wind","t_state":"NY","t_county":"Chautauqua County","amount":36,"p_name":"Arkwright Summit","p_year":2018},"geometry":{"type":"Point","coordinates":[-79.214523,42.381958]}},{"type":"Feature","properties":{"kind":"Wind","t_state":"NY","t_county":"Chautauqua County","amount":35,"p_name":"Cassadaga","p_year":2021},"geometry":{"type":"Point","coordinates":[-79.14225,42.332321]}},{"type":"Feature","properties":{"kind":"Wind","t_state":"NY","t_county":"Chautauqua County","amount":3,"p_name":"New York State Thruway Authority","p_year":2015},"geometry":{"type":"Point","coordinates":[-79.309692,42.460438]}},{"type":"Feature","properties":{"kind":"Wind","t_state":"NY","t_county":"Chautauqua County","amount":2,"p_name":"unknown Chautauqua County","p_year":2021},"geometry":{"type":"Point","coordinates":[-79.202927,42.30846]}},{"type":"Feature","properties":{"kind":"Wind","t_state":"NM","t_county":"Chaves County","amount":8,"p_name":"Anderson Wind Project","p_year":2014},"geometry":{"type":"Point","coordinates":[-103.869209,33.013515]}},{"type":"Feature","properties":{"kind":"Wind","t_state":"NM","t_county":"Chaves County","amount":30,"p_name":"Oso Grande","p_year":2020},"geometry":{"type":"Point","coordinates":[-103.827209,32.988892]}},{"type":"Feature","properties":{"kind":"Wind","t_state":"NM","t_county":"Chaves County","amount":38,"p_name":"San Juan Mesa","p_year":2005},"geometry":{"type":"Point","coordinates":[-103.856491,33.957191]}},{"type":"Feature","properties":{"kind":"Wind","t_state":"NM","t_county":"Chaves County","amount":2,"p_name":"unknown Chaves County","p_year":2020},"geometry":{"type":"Point","coordinates":[-103.803337,33.11697]}},{"type":"Feature","properties":{"kind":"Wind","t_state":"IA","t_county":"Cherokee County","amount":82,"p_name":"Glaciers Edge","p_year":2019},"geometry":{"type":"Point","coordinates":[-95.708511,42.871311]}},{"type":"Feature","properties":{"kind":"Wind","t_state":"IA","t_county":"Cherokee County","amount":9,"p_name":"Storm Lake I","p_year":1999},"geometry":{"type":"Point","coordinates":[-95.414192,42.685791]}},{"type":"Feature","properties":{"kind":"Wind","t_state":"IA","t_county":"Cherokee County","amount":18,"p_name":"Storm Lake II","p_year":1999},"geometry":{"type":"Point","coordinates":[-95.39579,42.840393]}},{"type":"Feature","properties":{"kind":"Wind","t_state":"IA","t_county":"Cherokee County","amount":1,"p_name":"unknown Cherokee County","p_year":2015},"geometry":{"type":"Point","coordinates":[-95.557167,42.769428]}},{"type":"Feature","properties":{"kind":"Wind","t_state":"CO","t_county":"Cheyenne County","amount":152,"p_name":"Cheyenne Ridge","p_year":2020},"geometry":{"type":"Point","coordinates":[-102.350388,39.004955]}},{"type":"Feature","properties":{"kind":"Wind","t_state":"CO","t_county":"Cheyenne County","amount":5,"p_name":"Crossing Trails","p_year":2021},"geometry":{"type":"Point","coordinates":[-102.806618,39.035664]}},{"type":"Feature","properties":{"kind":"Wind","t_state":"CO","t_county":"Cheyenne County","amount":11,"p_name":"Rush Creek II","p_year":2018},"geometry":{"type":"Point","coordinates":[-103.148827,39.004601]}},{"type":"Feature","properties":{"kind":"Wind","t_state":"MN","t_county":"Chippewa County","amount":17,"p_name":"Palmer's Creek","p_year":2018},"geometry":{"type":"Point","coordinates":[-95.541702,44.836636]}},{"type":"Feature","properties":{"kind":"Wind","t_state":"MN","t_county":"Chippewa County","amount":1,"p_name":"unknown Chippewa County","p_year":2019},"geometry":{"type":"Point","coordinates":[-95.606865,44.869286]}},{"type":"Feature","properties":{"kind":"Wind","t_state":"VT","t_county":"Chittenden County","amount":1,"p_name":"Bolton Valley Resort","p_year":2009},"geometry":{"type":"Point","coordinates":[-72.834724,44.414455]}},{"type":"Feature","properties":{"kind":"Wind","t_state":"VT","t_county":"Chittenden County","amount":1,"p_name":"Dynapower","p_year":2010},"geometry":{"type":"Point","coordinates":[-73.155098,44.442989]}},{"type":"Feature","properties":{"kind":"Wind","t_state":"VT","t_county":"Chittenden County","amount":1,"p_name":"Dynapower 1","p_year":1997},"geometry":{"type":"Point","coordinates":[-73.151596,44.44249]}},{"type":"Feature","properties":{"kind":"Wind","t_state":"VT","t_county":"Chittenden County","amount":2,"p_name":"Georgia Mountain","p_year":2012},"geometry":{"type":"Point","coordinates":[-73.06871,44.658684]}},{"type":"Feature","properties":{"kind":"Wind","t_state":"VT","t_county":"Chittenden County","amount":1,"p_name":"Heritage Flight","p_year":2009},"geometry":{"type":"Point","coordinates":[-73.145996,44.463093]}},{"type":"Feature","properties":{"kind":"Wind","t_state":"NM","t_county":"Cibola County","amount":64,"p_name":"Red Mesa","p_year":2010},"geometry":{"type":"Point","coordinates":[-107.383987,35.237595]}},{"type":"Feature","properties":{"kind":"Wind","t_state":"KS","t_county":"Clark County","amount":10,"p_name":"Bloom","p_year":2017},"geometry":{"type":"Point","coordinates":[-99.935486,37.464607]}},{"type":"Feature","properties":{"kind":"Wind","t_state":"KS","t_county":"Clark County","amount":98,"p_name":"Cimarron Bend I","p_year":2016},"geometry":{"type":"Point","coordinates":[-99.921265,37.345974]}},{"type":"Feature","properties":{"kind":"Wind","t_state":"KS","t_county":"Clark County","amount":100,"p_name":"Cimarron Bend II","p_year":2017},"geometry":{"type":"Point","coordinates":[-99.964905,37.376614]}},{"type":"Feature","properties":{"kind":"Wind","t_state":"KS","t_county":"Clark County","amount":74,"p_name":"Cimarron Bend III","p_year":2020},"geometry":{"type":"Point","coordinates":[-99.914612,37.44696]}},{"type":"Feature","properties":{"kind":"Wind","t_state":"SD","t_county":"Clark County","amount":77,"p_name":"Crocker","p_year":2019},"geometry":{"type":"Point","coordinates":[-97.889488,45.08683]}},{"type":"Feature","properties":{"kind":"Wind","t_state":"SD","t_county":"Clark County","amount":11,"p_name":"Oak Tree","p_year":2014},"geometry":{"type":"Point","coordinates":[-97.752983,44.947121]}},{"type":"Feature","properties":{"kind":"Wind","t_state":"KS","t_county":"Clark County","amount":3,"p_name":"unknown Clark County","p_year":2016},"geometry":{"type":"Point","coordinates":[-99.942451,37.361828]}},{"type":"Feature","properties":{"kind":"Wind","t_state":"MN","t_county":"Clay County","amount":3,"p_name":"Agassiz Beach","p_year":2001},"geometry":{"type":"Point","coordinates":[-96.435493,46.999592]}},{"type":"Feature","properties":{"kind":"Wind","t_state":"IA","t_county":"Clay County","amount":1,"p_name":"Cross Winds","p_year":2007},"geometry":{"type":"Point","coordinates":[-94.92289,43.047493]}},{"type":"Feature","properties":{"kind":"Wind","t_state":"MN","t_county":"Clay County","amount":30,"p_name":"Lakeswind","p_year":2014},"geometry":{"type":"Point","coordinates":[-96.267853,46.713772]}},{"type":"Feature","properties":{"kind":"Wind","t_state":"MN","t_county":"Clay County","amount":2,"p_name":"Moorhead","p_year":1999},"geometry":{"type":"Point","coordinates":[-96.734795,46.895092]}},{"type":"Feature","properties":{"kind":"Wind","t_state":"TX","t_county":"Clay County","amount":119,"p_name":"Shannon","p_year":2015},"geometry":{"type":"Point","coordinates":[-98.380531,33.537094]}},{"type":"Feature","properties":{"kind":"Wind","t_state":"IA","t_county":"Clay County","amount":72,"p_name":"Upland Prairie","p_year":2019},"geometry":{"type":"Point","coordinates":[-95.33107,43.20771]}},{"type":"Feature","properties":{"kind":"Wind","t_state":"IA","t_county":"Clay County","amount":2,"p_name":"unknown Clay County","p_year":""},"geometry":{"type":"Point","coordinates":[-95.370605,43.252411]}},{"type":"Feature","properties":{"kind":"Wind","t_state":"NY","t_county":"Clinton County","amount":70,"p_name":"Marble River","p_year":2012},"geometry":{"type":"Point","coordinates":[-73.919998,44.94149]}},{"type":"Feature","properties":{"kind":"Wind","t_state":"NY","t_county":"Clinton County","amount":65,"p_name":"Noble Altona","p_year":2009},"geometry":{"type":"Point","coordinates":[-73.659401,44.805389]}},{"type":"Feature","properties":{"kind":"Wind","t_state":"NY","t_county":"Clinton County","amount":67,"p_name":"Noble Clinton","p_year":2008},"geometry":{"type":"Point","coordinates":[-74.005798,44.946392]}},{"type":"Feature","properties":{"kind":"Wind","t_state":"NY","t_county":"Clinton County","amount":54,"p_name":"Noble Ellenburg","p_year":2008},"geometry":{"type":"Point","coordinates":[-73.962502,44.862892]}},{"type":"Feature","properties":{"kind":"Wind","t_state":"KS","t_county":"Cloud County","amount":2,"p_name":"Cloud County Community College","p_year":2010},"geometry":{"type":"Point","coordinates":[-97.663795,39.548813]}},{"type":"Feature","properties":{"kind":"Wind","t_state":"KS","t_county":"Cloud County","amount":1,"p_name":"Cloud Power","p_year":2010},"geometry":{"type":"Point","coordinates":[-97.664314,39.54911]}},{"type":"Feature","properties":{"kind":"Wind","t_state":"KS","t_county":"Cloud County","amount":35,"p_name":"Meridian Way","p_year":2008},"geometry":{"type":"Point","coordinates":[-97.594589,39.430195]}},{"type":"Feature","properties":{"kind":"Wind","t_state":"KS","t_county":"Cloud County","amount":32,"p_name":"Meridian Way II","p_year":2008},"geometry":{"type":"Point","coordinates":[-97.755394,39.435394]}},{"type":"Feature","properties":{"kind":"Wind","t_state":"AZ","t_county":"Cochise County","amount":15,"p_name":"Red Horse 2","p_year":2015},"geometry":{"type":"Point","coordinates":[-110.08799,32.294384]}},{"type":"Feature","properties":{"kind":"Wind","t_state":"TX","t_county":"Cochran County","amount":67,"p_name":"Wildcat Ranch","p_year":2018},"geometry":{"type":"Point","coordinates":[-102.924904,33.553638]}},{"type":"Feature","properties":{"kind":"Wind","t_state":"AZ","t_county":"Coconino County","amount":61,"p_name":"Perrin Ranch","p_year":2012},"geometry":{"type":"Point","coordinates":[-112.222221,35.43903]}},{"type":"Feature","properties":{"kind":"Wind","t_state":"SD","t_county":"Codington County","amount":69,"p_name":"Crowned Ridge I","p_year":2019},"geometry":{"type":"Point","coordinates":[-96.980148,45.05368]}},{"type":"Feature","properties":{"kind":"Wind","t_state":"SD","t_county":"Codington County","amount":57,"p_name":"Crowned Ridge II","p_year":2020},"geometry":{"type":"Point","coordinates":[-96.896812,44.857288]}},{"type":"Feature","properties":{"kind":"Wind","t_state":"SD","t_county":"Codington County","amount":36,"p_name":"unknown Codington County","p_year":2021},"geometry":{"type":"Point","coordinates":[-97.020691,45.101864]}},{"type":"Feature","properties":{"kind":"Wind","t_state":"KS","t_county":"Coffey County","amount":95,"p_name":"Waverly","p_year":2015},"geometry":{"type":"Point","coordinates":[-95.611229,38.292305]}},{"type":"Feature","properties":{"kind":"Wind","t_state":"TX","t_county":"Coke County","amount":191,"p_name":"Aviator Wind","p_year":2020},"geometry":{"type":"Point","coordinates":[-100.73259,31.787527]}},{"type":"Feature","properties":{"kind":"Wind","t_state":"TX","t_county":"Coke County","amount":33,"p_name":"Capricorn Ridge","p_year":2007},"geometry":{"type":"Point","coordinates":[-100.784119,31.890551]}},{"type":"Feature","properties":{"kind":"Wind","t_state":"TX","t_county":"Coke County","amount":63,"p_name":"Goat Phase I","p_year":2008},"geometry":{"type":"Point","coordinates":[-100.794693,31.941296]}},{"type":"Feature","properties":{"kind":"Wind","t_state":"TX","t_county":"Coke County","amount":29,"p_name":"Goat Phase II","p_year":2009},"geometry":{"type":"Point","coordinates":[-100.770195,31.961096]}},{"type":"Feature","properties":{"kind":"Wind","t_state":"IL","t_county":"Coles County","amount":1,"p_name":"Arends Brothers","p_year":2009},"geometry":{"type":"Point","coordinates":[-88.02977,39.531311]}},{"type":"Feature","properties":{"kind":"Wind","t_state":"IL","t_county":"Coles County","amount":1,"p_name":"LLC 1","p_year":2011},"geometry":{"type":"Point","coordinates":[-88.387367,39.417534]}},{"type":"Feature","properties":{"kind":"Wind","t_state":"IL","t_county":"Coles County","amount":2,"p_name":"LLC 2","p_year":2012},"geometry":{"type":"Point","coordinates":[-88.38662,39.419407]}},{"type":"Feature","properties":{"kind":"Wind","t_state":"TX","t_county":"Collin County","amount":2,"p_name":"unknown Collins County","p_year":2011},"geometry":{"type":"Point","coordinates":[-96.61689,33.221596]}},{"type":"Feature","properties":{"kind":"Wind","t_state":"WI","t_county":"Columbia County","amount":90,"p_name":"Glacier Hills","p_year":2011},"geometry":{"type":"Point","coordinates":[-89.149796,43.560993]}},{"type":"Feature","properties":{"kind":"Wind","t_state":"WA","t_county":"Columbia County","amount":4,"p_name":"Hopkins Ridge II","p_year":2008},"geometry":{"type":"Point","coordinates":[-117.802185,46.431793]}},{"type":"Feature","properties":{"kind":"Wind","t_state":"WA","t_county":"Columbia County","amount":83,"p_name":"Hopkins Ridge Wind Project","p_year":2005},"geometry":{"type":"Point","coordinates":[-117.868187,46.456593]}},{"type":"Feature","properties":{"kind":"Wind","t_state":"PA","t_county":"Columbia County","amount":5,"p_name":"Locust Ridge","p_year":2006},"geometry":{"type":"Point","coordinates":[-76.319824,40.812164]}},{"type":"Feature","properties":{"kind":"Wind","t_state":"WA","t_county":"Columbia County","amount":39,"p_name":"Marengo II","p_year":2008},"geometry":{"type":"Point","coordinates":[-117.885185,46.375793]}},{"type":"Feature","properties":{"kind":"Wind","t_state":"WA","t_county":"Columbia County","amount":78,"p_name":"Marengo Wind Power Project","p_year":2007},"geometry":{"type":"Point","coordinates":[-117.767784,46.370895]}},{"type":"Feature","properties":{"kind":"Wind","t_state":"WA","t_county":"Columbia County","amount":116,"p_name":"Tucannon River","p_year":2014},"geometry":{"type":"Point","coordinates":[-118.063118,46.445763]}},{"type":"Feature","properties":{"kind":"Wind","t_state":"OH","t_county":"Columbiana County","amount":1,"p_name":"Boyce Dairy Farm","p_year":2010},"geometry":{"type":"Point","coordinates":[-81.045471,40.868603]}},{"type":"Feature","properties":{"kind":"Wind","t_state":"OK","t_county":"Comanche County","amount":29,"p_name":"Blue Canyon I","p_year":2003},"geometry":{"type":"Point","coordinates":[-98.555092,34.853294]}},{"type":"Feature","properties":{"kind":"Wind","t_state":"OK","t_county":"Comanche County","amount":66,"p_name":"Blue Canyon V","p_year":2009},"geometry":{"type":"Point","coordinates":[-98.499695,34.827892]}},{"type":"Feature","properties":{"kind":"Wind","t_state":"TX","t_county":"Comanche County","amount":12,"p_name":"Flat Top","p_year":2018},"geometry":{"type":"Point","coordinates":[-98.612656,31.709242]}},{"type":"Feature","properties":{"kind":"Wind","t_state":"TX","t_county":"Comanche County","amount":87,"p_name":"Logan's Gap Wind","p_year":2015},"geometry":{"type":"Point","coordinates":[-98.648872,31.871614]}},{"type":"Feature","properties":{"kind":"Wind","t_state":"TX","t_county":"Concho County","amount":43,"p_name":"Cactus Flats","p_year":2018},"geometry":{"type":"Point","coordinates":[-99.967072,31.123596]}},{"type":"Feature","properties":{"kind":"Wind","t_state":"TX","t_county":"Concho County","amount":127,"p_name":"Maverick Creek","p_year":2020},"geometry":{"type":"Point","coordinates":[-99.879501,31.219355]}},{"type":"Feature","properties":{"kind":"Wind","t_state":"CA","t_county":"Contra Costa County","amount":37,"p_name":"Buena Vista","p_year":2006},"geometry":{"type":"Point","coordinates":[-121.659889,37.796394]}},{"type":"Feature","properties":{"kind":"Wind","t_state":"CA","t_county":"Contra Costa County","amount":33,"p_name":"Vasco (repower)","p_year":2011},"geometry":{"type":"Point","coordinates":[-121.725685,37.784996]}},{"type":"Feature","properties":{"kind":"Wind","t_state":"CA","t_county":"Contra Costa County","amount":1,"p_name":"unknown Contra Costa County","p_year":2006},"geometry":{"type":"Point","coordinates":[-121.653084,37.802395]}},{"type":"Feature","properties":{"kind":"Wind","t_state":"WY","t_county":"Converse County","amount":66,"p_name":"Campbell Hill","p_year":2009},"geometry":{"type":"Point","coordinates":[-106.02459,42.981392]}},{"type":"Feature","properties":{"kind":"Wind","t_state":"WY","t_county":"Converse County","amount":72,"p_name":"Cedar Springs I","p_year":2020},"geometry":{"type":"Point","coordinates":[-105.462662,43.117229]}},{"type":"Feature","properties":{"kind":"Wind","t_state":"WY","t_county":"Converse County","amount":73,"p_name":"Cedar Springs II","p_year":2020},"geometry":{"type":"Point","coordinates":[-105.271843,42.932438]}},{"type":"Feature","properties":{"kind":"Wind","t_state":"WY","t_county":"Converse County","amount":48,"p_name":"Cedar Springs III","p_year":2020},"geometry":{"type":"Point","coordinates":[-105.659447,43.080456]}},{"type":"Feature","properties":{"kind":"Wind","t_state":"WY","t_county":"Converse County","amount":66,"p_name":"Glenrock","p_year":2008},"geometry":{"type":"Point","coordinates":[-105.810089,43.101395]}},{"type":"Feature","properties":{"kind":"Wind","t_state":"WY","t_county":"Converse County","amount":26,"p_name":"Glenrock III","p_year":2009},"geometry":{"type":"Point","coordinates":[-105.845589,43.075993]}},{"type":"Feature","properties":{"kind":"Wind","t_state":"WY","t_county":"Converse County","amount":46,"p_name":"Pioneer Wind Park","p_year":2016},"geometry":{"type":"Point","coordinates":[-105.906731,42.662045]}},{"type":"Feature","properties":{"kind":"Wind","t_state":"WY","t_county":"Converse County","amount":66,"p_name":"Rolling Hills","p_year":2009},"geometry":{"type":"Point","coordinates":[-105.850487,43.049992]}},{"type":"Feature","properties":{"kind":"Wind","t_state":"WY","t_county":"Converse County","amount":110,"p_name":"Top of the World","p_year":2010},"geometry":{"type":"Point","coordinates":[-105.769592,42.921494]}},{"type":"Feature","properties":{"kind":"Wind","t_state":"WY","t_county":"Converse County","amount":58,"p_name":"unknown Converse County","p_year":""},"geometry":{"type":"Point","coordinates":[-105.563004,43.13052]}},{"type":"Feature","properties":{"kind":"Wind","t_state":"IL","t_county":"Cook County","amount":1,"p_name":"Big Windy","p_year":2009},"geometry":{"type":"Point","coordinates":[-87.865189,41.955463]}},{"type":"Feature","properties":{"kind":"Wind","t_state":"IL","t_county":"Cook County","amount":1,"p_name":"Method Manufacturing Plant","p_year":2015},"geometry":{"type":"Point","coordinates":[-87.601456,41.698063]}},{"type":"Feature","properties":{"kind":"Wind","t_state":"IL","t_county":"Cook County","amount":1,"p_name":"Testa Produce","p_year":2011},"geometry":{"type":"Point","coordinates":[-87.653992,41.810692]}},{"type":"Feature","properties":{"kind":"Wind","t_state":"TX","t_county":"Cooke County","amount":52,"p_name":"Tyler Bluff","p_year":2016},"geometry":{"type":"Point","coordinates":[-97.380714,33.679737]}},{"type":"Feature","properties":{"kind":"Wind","t_state":"TX","t_county":"Cooke County","amount":52,"p_name":"Wildcat Creek","p_year":2021},"geometry":{"type":"Point","coordinates":[-97.349571,33.567402]}},{"type":"Feature","properties":{"kind":"Wind","t_state":"TX","t_county":"Cooke County","amount":75,"p_name":"Wolf Ridge","p_year":2008},"geometry":{"type":"Point","coordinates":[-97.388374,33.749813]}},{"type":"Feature","properties":{"kind":"Wind","t_state":"NH","t_county":"Coos County","amount":33,"p_name":"Granite Reliable Power","p_year":2012},"geometry":{"type":"Point","coordinates":[-71.305199,44.75539]}},{"type":"Feature","properties":{"kind":"Wind","t_state":"NH","t_county":"Coos County","amount":5,"p_name":"Jericho Mountain","p_year":2015},"geometry":{"type":"Point","coordinates":[-71.223137,44.469822]}},{"type":"Feature","properties":{"kind":"Wind","t_state":"NH","t_county":"Coos County","amount":1,"p_name":"Mountain View Grand","p_year":2009},"geometry":{"type":"Point","coordinates":[-71.590302,44.398792]}},{"type":"Feature","properties":{"kind":"Wind","t_state":"MN","t_county":"Cottonwood County","amount":12,"p_name":"Bingham Lake","p_year":2006},"geometry":{"type":"Point","coordinates":[-95.061089,43.960892]}},{"type":"Feature","properties":{"kind":"Wind","t_state":"MN","t_county":"Cottonwood County","amount":20,"p_name":"Jeffers","p_year":2008},"geometry":{"type":"Point","coordinates":[-95.265495,44.059792]}},{"type":"Feature","properties":{"kind":"Wind","t_state":"MN","t_county":"Cottonwood County","amount":1,"p_name":"Mountain Lake Wind","p_year":2007},"geometry":{"type":"Point","coordinates":[-94.943382,43.940548]}},{"type":"Feature","properties":{"kind":"Wind","t_state":"MN","t_county":"Cottonwood County","amount":53,"p_name":"Odell","p_year":2016},"geometry":{"type":"Point","coordinates":[-94.944847,43.86961]}},{"type":"Feature","properties":{"kind":"Wind","t_state":"MN","t_county":"Cottonwood County","amount":5,"p_name":"Odin","p_year":2008},"geometry":{"type":"Point","coordinates":[-94.867584,43.849411]}},{"type":"Feature","properties":{"kind":"Wind","t_state":"IA","t_county":"Crawford County","amount":50,"p_name":"New Harvest","p_year":2012},"geometry":{"type":"Point","coordinates":[-95.452095,42.179691]}},{"type":"Feature","properties":{"kind":"Wind","t_state":"IA","t_county":"Crawford County","amount":43,"p_name":"Victory(Carroll)","p_year":2006},"geometry":{"type":"Point","coordinates":[-95.128426,42.144402]}},{"type":"Feature","properties":{"kind":"Wind","t_state":"OH","t_county":"Crawford County","amount":2,"p_name":"Wynford Local Schools","p_year":2011},"geometry":{"type":"Point","coordinates":[-83.019608,40.823952]}},{"type":"Feature","properties":{"kind":"Wind","t_state":"KS","t_county":"Crawford County","amount":14,"p_name":"unknown Crawford County","p_year":2021},"geometry":{"type":"Point","coordinates":[-94.991898,37.672699]}},{"type":"Feature","properties":{"kind":"Wind","t_state":"TX","t_county":"Crockett County","amount":67,"p_name":"High Lonesome","p_year":2019},"geometry":{"type":"Point","coordinates":[-101.866188,31.052225]}},{"type":"Feature","properties":{"kind":"Wind","t_state":"TX","t_county":"Crockett County","amount":1,"p_name":"High Lonesome Expansion","p_year":2020},"geometry":{"type":"Point","coordinates":[-101.93779,31.011215]}},{"type":"Feature","properties":{"kind":"Wind","t_state":"TX","t_county":"Crockett County","amount":119,"p_name":"Ranchero","p_year":2019},"geometry":{"type":"Point","coordinates":[-101.8424,31.025169]}},{"type":"Feature","properties":{"kind":"Wind","t_state":"TX","t_county":"Crockett County","amount":180,"p_name":"unknown Crockett County","p_year":2021},"geometry":{"type":"Point","coordinates":[-101.365967,30.925997]}},{"type":"Feature","properties":{"kind":"Wind","t_state":"TX","t_county":"Crosby County","amount":32,"p_name":"Lorenzo Winds","p_year":2018},"geometry":{"type":"Point","coordinates":[-101.478638,33.711117]}},{"type":"Feature","properties":{"kind":"Wind","t_state":"TX","t_county":"Crosby County","amount":11,"p_name":"Pleasant Hill","p_year":2015},"geometry":{"type":"Point","coordinates":[-101.455391,33.746796]}},{"type":"Feature","properties":{"kind":"Wind","t_state":"TX","t_county":"Crosby County","amount":5,"p_name":"Ralls Wind Farm","p_year":2011},"geometry":{"type":"Point","coordinates":[-101.390114,33.661327]}},{"type":"Feature","properties":{"kind":"Wind","t_state":"TX","t_county":"Crosby County","amount":68,"p_name":"Wake","p_year":2016},"geometry":{"type":"Point","coordinates":[-101.07692,33.806061]}},{"type":"Feature","properties":{"kind":"Wind","t_state":"TX","t_county":"Crosby County","amount":4,"p_name":"unknown Crosby County","p_year":2018},"geometry":{"type":"Point","coordinates":[-101.489777,33.764824]}},{"type":"Feature","properties":{"kind":"Wind","t_state":"NE","t_county":"Cuming County","amount":1,"p_name":"unknown Cuming County","p_year":2019},"geometry":{"type":"Point","coordinates":[-96.861832,42.019974]}},{"type":"Feature","properties":{"kind":"Wind","t_state":"NM","t_county":"Curry County","amount":12,"p_name":"Brahms Wind, LLC","p_year":2014},"geometry":{"type":"Point","coordinates":[-103.336189,34.747192]}},{"type":"Feature","properties":{"kind":"Wind","t_state":"NM","t_county":"Curry County","amount":43,"p_name":"Broadview Energy JN LLC","p_year":2017},"geometry":{"type":"Point","coordinates":[-103.130096,34.809929]}},{"type":"Feature","properties":{"kind":"Wind","t_state":"NM","t_county":"Curry County","amount":62,"p_name":"Broadview Energy KW LLC","p_year":2017},"geometry":{"type":"Point","coordinates":[-103.0616,34.765194]}},{"type":"Feature","properties":{"kind":"Wind","t_state":"NM","t_county":"Curry County","amount":84,"p_name":"Grady","p_year":2019},"geometry":{"type":"Point","coordinates":[-103.272629,34.815636]}},{"type":"Feature","properties":{"kind":"Wind","t_state":"NM","t_county":"Curry County","amount":3,"p_name":"Llano Estacado Wind Ranch at Texico","p_year":1999},"geometry":{"type":"Point","coordinates":[-103.056976,34.360142]}},{"type":"Feature","properties":{"kind":"Wind","t_state":"NE","t_county":"Custer County","amount":50,"p_name":"Broken Bow I","p_year":2012},"geometry":{"type":"Point","coordinates":[-99.630394,41.511692]}},{"type":"Feature","properties":{"kind":"Wind","t_state":"NE","t_county":"Custer County","amount":43,"p_name":"Broken Bow II","p_year":2014},"geometry":{"type":"Point","coordinates":[-99.632378,41.537903]}},{"type":"Feature","properties":{"kind":"Wind","t_state":"OK","t_county":"Custer County","amount":12,"p_name":"Red Hills","p_year":2008},"geometry":{"type":"Point","coordinates":[-99.358093,35.531494]}},{"type":"Feature","properties":{"kind":"Wind","t_state":"OK","t_county":"Custer County","amount":71,"p_name":"Weatherford","p_year":2005},"geometry":{"type":"Point","coordinates":[-98.771194,35.482994]}},{"type":"Feature","properties":{"kind":"Wind","t_state":"OK","t_county":"Custer County","amount":20,"p_name":"Weatherford Expansion","p_year":2005},"geometry":{"type":"Point","coordinates":[-98.704193,35.480095]}},{"type":"Feature","properties":{"kind":"Wind","t_state":"OK","t_county":"Custer County","amount":10,"p_name":"unknown Custer County","p_year":2021},"geometry":{"type":"Point","coordinates":[-98.811508,35.575741]}},{"type":"Feature","properties":{"kind":"Wind","t_state":"OH","t_county":"Cuyahoga County","amount":3,"p_name":"Case Western University","p_year":2012},"geometry":{"type":"Point","coordinates":[-81.497627,41.602192]}},{"type":"Feature","properties":{"kind":"Wind","t_state":"OH","t_county":"Cuyahoga County","amount":1,"p_name":"Cuyahoga County Fairgrounds","p_year":2012},"geometry":{"type":"Point","coordinates":[-81.839195,41.366493]}},{"type":"Feature","properties":{"kind":"Wind","t_state":"OH","t_county":"Cuyahoga County","amount":1,"p_name":"Great Lakes Science Center","p_year":2006},"geometry":{"type":"Point","coordinates":[-81.696793,41.506691]}},{"type":"Feature","properties":{"kind":"Wind","t_state":"OH","t_county":"Cuyahoga County","amount":1,"p_name":"Lincoln Electric","p_year":2011},"geometry":{"type":"Point","coordinates":[-81.525696,41.58469]}},{"type":"Feature","properties":{"kind":"Wind","t_state":"MO","t_county":"Dade County","amount":13,"p_name":"Kings Point","p_year":2021},"geometry":{"type":"Point","coordinates":[-93.999168,37.304817]}},{"type":"Feature","properties":{"kind":"Wind","t_state":"MN","t_county":"Dakota County","amount":1,"p_name":"Eolos","p_year":2011},"geometry":{"type":"Point","coordinates":[-93.048073,44.728298]}},{"type":"Feature","properties":{"kind":"Wind","t_state":"NE","t_county":"Dakota County","amount":2,"p_name":"unknown Dakota County","p_year":2015},"geometry":{"type":"Point","coordinates":[-96.435936,42.413845]}},{"type":"Feature","properties":{"kind":"Wind","t_state":"IA","t_county":"Dallas County","amount":2,"p_name":"Mason Wind LLC Perry","p_year":2017},"geometry":{"type":"Point","coordinates":[-94.080627,41.81881]}},{"type":"Feature","properties":{"kind":"Wind","t_state":"WI","t_county":"Dane County","amount":6,"p_name":"Galactic Wind","p_year":2012},"geometry":{"type":"Point","coordinates":[-89.551598,43.173092]}},{"type":"Feature","properties":{"kind":"Wind","t_state":"OH","t_county":"Darke County","amount":3,"p_name":"Whirlpool Corporation - Greenville Wind Fa","p_year":2018},"geometry":{"type":"Point","coordinates":[-84.608215,40.127792]}},{"type":"Feature","properties":{"kind":"Wind","t_state":"NE","t_county":"Dawes County","amount":1,"p_name":"Pine Ridge Job Corp","p_year":2010},"geometry":{"type":"Point","coordinates":[-102.983292,42.679729]}},{"type":"Feature","properties":{"kind":"Wind","t_state":"TX","t_county":"Dawson County","amount":111,"p_name":"Mesquite Creek","p_year":2015},"geometry":{"type":"Point","coordinates":[-101.689972,32.705765]}},{"type":"Feature","properties":{"kind":"Wind","t_state":"SD","t_county":"Day County","amount":66,"p_name":"Day County Wind","p_year":2010},"geometry":{"type":"Point","coordinates":[-97.893692,45.205292]}},{"type":"Feature","properties":{"kind":"Wind","t_state":"NM","t_county":"De Baca County","amount":9,"p_name":"Casa Mesa","p_year":2018},"geometry":{"type":"Point","coordinates":[-103.995232,34.603004]}},{"type":"Feature","properties":{"kind":"Wind","t_state":"NM","t_county":"De Baca County","amount":50,"p_name":"New Mexico Wind Energy Center","p_year":2003},"geometry":{"type":"Point","coordinates":[-104.088455,34.537415]}},{"type":"Feature","properties":{"kind":"Wind","t_state":"TX","t_county":"Deaf Smith County","amount":36,"p_name":"Broadview Energy JN LLC","p_year":2017},"geometry":{"type":"Point","coordinates":[-102.948196,34.771442]}},{"type":"Feature","properties":{"kind":"Wind","t_state":"TX","t_county":"Deaf Smith County","amount":21,"p_name":"Canadian Breaks","p_year":2019},"geometry":{"type":"Point","coordinates":[-102.279694,35.181175]}},{"type":"Feature","properties":{"kind":"Wind","t_state":"TX","t_county":"Deaf Smith County","amount":104,"p_name":"Hereford 1","p_year":2014},"geometry":{"type":"Point","coordinates":[-102.26828,34.773163]}},{"type":"Feature","properties":{"kind":"Wind","t_state":"TX","t_county":"Deaf Smith County","amount":1,"p_name":"unknown Deaf Smith County","p_year":""},"geometry":{"type":"Point","coordinates":[-102.275093,35.175026]}},{"type":"Feature","properties":{"kind":"Wind","t_state":"IL","t_county":"DeKalb County","amount":126,"p_name":"Lee/DeKalb","p_year":2009},"geometry":{"type":"Point","coordinates":[-88.771492,41.824291]}},{"type":"Feature","properties":{"kind":"Wind","t_state":"MO","t_county":"DeKalb County","amount":100,"p_name":"Lost Creek Ridge Wind Farm","p_year":2010},"geometry":{"type":"Point","coordinates":[-94.473595,39.987991]}},{"type":"Feature","properties":{"kind":"Wind","t_state":"MO","t_county":"DeKalb County","amount":75,"p_name":"Osborn","p_year":2016},"geometry":{"type":"Point","coordinates":[-94.474495,39.903622]}},{"type":"Feature","properties":{"kind":"Wind","t_state":"MO","t_county":"DeKalb County","amount":22,"p_name":"unknown DeKalb County","p_year":2017},"geometry":{"type":"Point","coordinates":[-94.521431,39.912766]}},{"type":"Feature","properties":{"kind":"Wind","t_state":"IA","t_county":"Delaware County","amount":17,"p_name":"Elk","p_year":2011},"geometry":{"type":"Point","coordinates":[-91.365295,42.597191]}},{"type":"Feature","properties":{"kind":"Wind","t_state":"IA","t_county":"Delaware County","amount":3,"p_name":"Mason Wind LLC Dyersville","p_year":2017},"geometry":{"type":"Point","coordinates":[-91.224823,42.488827]}},{"type":"Feature","properties":{"kind":"Wind","t_state":"IA","t_county":"Delaware County","amount":21,"p_name":"unknown Delaware County","p_year":2021},"geometry":{"type":"Point","coordinates":[-91.527191,42.458553]}},{"type":"Feature","properties":{"kind":"Wind","t_state":"MI","t_county":"Delta County","amount":20,"p_name":"Fairbanks Wind Park","p_year":2020},"geometry":{"type":"Point","coordinates":[-86.690659,45.67424]}},{"type":"Feature","properties":{"kind":"Wind","t_state":"MI","t_county":"Delta County","amount":14,"p_name":"Heritage Garden","p_year":2012},"geometry":{"type":"Point","coordinates":[-86.543297,45.784889]}},{"type":"Feature","properties":{"kind":"Wind","t_state":"MI","t_county":"Delta County","amount":1,"p_name":"unknown Delta County","p_year":2020},"geometry":{"type":"Point","coordinates":[-86.615761,45.728638]}},{"type":"Feature","properties":{"kind":"Wind","t_state":"AK","t_county":"Denali Borough","amount":12,"p_name":"Eva Creek","p_year":2012},"geometry":{"type":"Point","coordinates":[-148.944778,64.069]}},{"type":"Feature","properties":{"kind":"Wind","t_state":"TX","t_county":"Denton County","amount":3,"p_name":"Apogee Stadium Wind","p_year":2012},"geometry":{"type":"Point","coordinates":[-97.160995,33.201195]}},{"type":"Feature","properties":{"kind":"Wind","t_state":"SD","t_county":"Deuel County","amount":24,"p_name":"Buffalo Ridge II","p_year":2010},"geometry":{"type":"Point","coordinates":[-96.659988,44.554092]}},{"type":"Feature","properties":{"kind":"Wind","t_state":"SD","t_county":"Deuel County","amount":29,"p_name":"Crowned Ridge II","p_year":2020},"geometry":{"type":"Point","coordinates":[-96.844048,44.936668]}},{"type":"Feature","properties":{"kind":"Wind","t_state":"SD","t_county":"Deuel County","amount":101,"p_name":"Deuel Harvest North","p_year":2021},"geometry":{"type":"Point","coordinates":[-96.575325,44.909969]}},{"type":"Feature","properties":{"kind":"Wind","t_state":"SD","t_county":"Deuel County","amount":56,"p_name":"Tatanka Ridge","p_year":2021},"geometry":{"type":"Point","coordinates":[-96.767548,44.664574]}},{"type":"Feature","properties":{"kind":"Wind","t_state":"SD","t_county":"Deuel County","amount":8,"p_name":"unknown Deuel County","p_year":2020},"geometry":{"type":"Point","coordinates":[-96.534462,44.810471]}},{"type":"Feature","properties":{"kind":"Wind","t_state":"OK","t_county":"Dewey County","amount":98,"p_name":"Crossroads","p_year":2012},"geometry":{"type":"Point","coordinates":[-98.793091,36.069195]}},{"type":"Feature","properties":{"kind":"Wind","t_state":"OK","t_county":"Dewey County","amount":106,"p_name":"Mammoth Plains","p_year":2014},"geometry":{"type":"Point","coordinates":[-98.687614,35.994293]}},{"type":"Feature","properties":{"kind":"Wind","t_state":"OK","t_county":"Dewey County","amount":21,"p_name":"Persimmon Creek I","p_year":2018},"geometry":{"type":"Point","coordinates":[-99.252922,36.161808]}},{"type":"Feature","properties":{"kind":"Wind","t_state":"OK","t_county":"Dewey County","amount":117,"p_name":"Seiling","p_year":2014},"geometry":{"type":"Point","coordinates":[-99.011955,36.111813]}},{"type":"Feature","properties":{"kind":"Wind","t_state":"OK","t_county":"Dewey County","amount":38,"p_name":"Seiling 2","p_year":2014},"geometry":{"type":"Point","coordinates":[-99.010925,36.154633]}},{"type":"Feature","properties":{"kind":"Wind","t_state":"OK","t_county":"Dewey County","amount":54,"p_name":"Taloga","p_year":2011},"geometry":{"type":"Point","coordinates":[-98.989189,35.858593]}},{"type":"Feature","properties":{"kind":"Wind","t_state":"TX","t_county":"Dickens County","amount":100,"p_name":"McAdoo","p_year":2008},"geometry":{"type":"Point","coordinates":[-100.968689,33.748993]}},{"type":"Feature","properties":{"kind":"Wind","t_state":"ND","t_county":"Dickey County","amount":75,"p_name":"Foxtail Wind","p_year":2019},"geometry":{"type":"Point","coordinates":[-98.85733,46.123367]}},{"type":"Feature","properties":{"kind":"Wind","t_state":"ND","t_county":"Dickey County","amount":66,"p_name":"Merricourt","p_year":2020},"geometry":{"type":"Point","coordinates":[-98.987488,46.138042]}},{"type":"Feature","properties":{"kind":"Wind","t_state":"ND","t_county":"Dickey County","amount":61,"p_name":"Tatanka","p_year":2008},